Timestamp,Runtime (s),Pitch,Roll,Yaw,Temp,Alt,Battery
2025-04-29 17:17:37.285,0.57,-56.84,0.59,-20663.2,24.65,-0.33,3.53
2025-04-29 17:17:37.844,1.13,-47.39,-1.56,-20687.0,24.68,-0.33,3.54
2025-04-29 17:17:38.401,1.69,-24.47,10.16,-20738.66,24.72,-0.31,3.54
2025-04-29 17:17:38.962,2.25,-43.4,0.02,-20768.09,24.74,-0.34,3.5
2025-04-29 17:17:39.522,2.81,-41.54,-0.05,-20793.02,24.78,-0.38,3.54
2025-04-29 17:17:40.081,3.37,-41.18,3.89,-20819.37,24.76,-0.38,3.49
2025-04-29 17:17:40.641,3.93,-41.67,1.73,-20842.81,24.75,-0.4,3.55
2025-04-29 17:17:41.200,4.49,-38.46,4.95,-20875.18,24.77,-0.43,3.52
2025-04-29 17:17:41.757,5.05,-40.63,3.36,-20899.98,24.8,-0.44,3.55
2025-04-29 17:17:42.267,5.56,-41.89,2.92,-20923.96,24.82,-0.47,3.52
2025-04-29 17:17:42.797,6.09,-42.03,0.28,-20947.63,24.83,-0.47,3.53
2025-04-29 17:17:43.358,6.65,-44.19,-1.36,-20973.82,24.86,-0.48,3.54
2025-04-29 17:17:43.882,7.17,-42.82,5.28,-20995.94,24.88,-0.5,3.54
2025-04-29 17:17:44.410,7.70,-39.78,16.13,-21014.22,24.91,-0.4,3.49
2025-04-29 17:17:44.959,8.25,-25.06,23.23,-21034.42,24.91,-0.4,3.53
2025-04-29 17:17:45.531,8.82,-37.25,16.53,-21062.11,24.92,-0.28,3.46
2025-04-29 17:17:46.128,9.42,-35.87,17.58,-21085.32,24.93,-0.17,3.5
2025-04-29 17:17:46.635,9.92,-30.77,20.53,-21107.37,24.93,-0.09,3.54
2025-04-29 17:17:47.202,10.49,-34.72,18.6,-21147.78,24.96,0.0,3.54
2025-04-29 17:17:47.759,11.05,-38.31,18.4,-21172.39,24.98,0.07,3.54
2025-04-29 17:17:48.317,11.61,-35.15,20.43,-21196.05,24.98,0.15,3.58
2025-04-29 17:17:48.887,12.18,-32.12,19.23,-21216.59,24.99,0.21,3.54
2025-04-29 17:17:49.434,12.72,-25.1,20.08,-21251.64,25.01,0.58,3.54
2025-04-29 17:17:49.994,13.28,-33.2,19.89,-21277.19,25.03,0.34,3.53
2025-04-29 17:17:50.522,13.81,-33.44,18.25,-21300.9,25.04,0.41,3.54
2025-04-29 17:17:51.037,14.33,-33.6,18.83,-21325.95,25.05,0.51,3.54
2025-04-29 17:17:51.599,14.89,-30.98,19.9,-21347.9,25.04,0.58,3.53
2025-04-29 17:17:52.176,15.47,-35.4,18.95,-21383.74,25.05,0.62,3.53
2025-04-29 17:17:52.714,16.00,-37.14,13.67,-21409.24,25.05,0.67,3.54
2025-04-29 17:17:53.275,16.56,-43.3,10.6,-21436.0,25.04,0.72,3.54
2025-04-29 17:17:53.839,17.13,-34.32,16.58,-21455.96,25.03,0.73,3.54
2025-04-29 17:17:54.398,17.69,-26.5,26.3,-21476.09,25.02,0.82,3.6
2025-04-29 17:17:54.926,18.21,-38.48,14.56,-21506.26,25.02,0.86,3.54
2025-04-29 17:17:55.434,18.72,-22.38,23.67,-21537.04,25.0,0.91,3.54
2025-04-29 17:17:55.996,19.28,-38.73,14.31,-21566.56,25.01,0.96,3.52
2025-04-29 17:17:56.536,19.82,-36.33,17.94,-21589.79,24.99,0.97,3.54
2025-04-29 17:17:57.037,20.33,-30.38,21.1,-21612.1,24.98,0.98,3.54
2025-04-29 17:17:57.593,20.88,-34.52,19.61,-21637.24,24.97,0.95,3.54
2025-04-29 17:17:58.155,21.44,-38.1,17.38,-21662.73,24.98,0.95,3.5
2025-04-29 17:17:58.729,22.02,-34.15,17.7,-21695.56,24.96,0.96,3.52
2025-04-29 17:17:59.275,22.56,-30.23,20.63,-21718.99,24.97,1.01,3.54
2025-04-29 17:17:59.842,23.13,-30.54,20.46,-21743.48,25.0,1.01,3.54
2025-04-29 17:18:00.393,23.68,-29.6,20.99,-21768.25,25.01,1.0,3.53
2025-04-29 17:18:00.961,24.25,-31.67,19.52,-21803.24,25.05,1.01,3.52
2025-04-29 17:18:01.509,24.80,-36.2,18.62,-21828.99,25.06,1.01,3.53
2025-04-29 17:18:02.068,25.36,-27.78,22.33,-21849.89,25.08,1.06,3.57
2025-04-29 17:18:02.629,25.92,-27.02,22.1,-21873.7,25.07,1.07,3.54
2025-04-29 17:18:03.190,26.48,-26.74,21.69,-21897.64,25.07,1.05,3.53
2025-04-29 17:18:03.759,27.05,-28.3,21.59,-21933.75,25.1,1.07,3.5
2025-04-29 17:18:04.310,27.60,-28.24,20.71,-21957.09,25.11,1.1,3.53
2025-04-29 17:18:04.880,28.17,-29.29,20.89,-21982.77,25.12,1.13,3.52
2025-04-29 17:18:05.437,28.73,-28.54,20.23,-22005.15,25.13,1.18,3.53
2025-04-29 17:18:05.993,29.28,-26.05,21.24,-22041.95,25.14,1.21,3.53
2025-04-29 17:18:06.552,29.84,-28.35,21.83,-22066.83,25.16,1.21,3.53
2025-04-29 17:18:07.114,30.40,-32.52,19.02,-22091.71,25.18,1.23,3.54
2025-04-29 17:18:07.672,30.96,-27.31,20.14,-22113.79,25.16,1.31,3.53
2025-04-29 17:18:08.235,31.52,-44.12,18.23,-22156.85,25.19,1.34,3.59
2025-04-29 17:18:08.788,32.08,-49.73,6.43,-22184.86,25.21,1.33,3.53
2025-04-29 17:18:09.350,32.64,-53.4,7.01,-22209.35,25.23,1.35,3.53
2025-04-29 17:18:09.906,33.20,-51.23,7.44,-22232.26,25.24,1.42,3.53
2025-04-29 17:18:10.466,33.76,-57.55,4.35,-22269.94,25.25,1.4,3.53
2025-04-29 17:18:11.026,34.32,-58.06,7.55,-22293.76,25.25,1.33,3.53
2025-04-29 17:18:11.589,34.88,-57.3,7.97,-22318.06,25.24,1.28,3.55
2025-04-29 17:18:12.147,35.44,-58.63,8.04,-22341.96,25.23,1.28,3.53
2025-04-29 17:18:12.710,36.00,-58.44,6.61,-22377.45,25.22,1.22,3.55
2025-04-29 17:18:13.278,36.57,-58.62,6.96,-22401.71,25.18,1.17,3.53
2025-04-29 17:18:13.825,37.11,-58.68,6.05,-22424.8,25.15,1.09,3.53
2025-04-29 17:18:14.384,37.67,-58.1,5.64,-22448.93,25.14,1.04,3.53
2025-04-29 17:18:14.942,38.23,-58.27,6.55,-22473.5,25.11,1.03,3.53
2025-04-29 17:18:15.553,38.84,-56.88,4.24,-22508.86,25.11,0.99,3.53
2025-04-29 17:18:16.062,39.35,-56.52,5.4,-22533.08,25.12,0.96,3.54
2025-04-29 17:18:16.624,39.91,-55.66,5.19,-22557.03,25.15,0.91,3.55
2025-04-29 17:18:17.187,40.48,-55.61,7.85,-22581.35,25.16,0.9,3.52
2025-04-29 17:18:17.741,41.03,-56.04,5.16,-22617.46,25.19,0.85,3.55
2025-04-29 17:18:18.311,41.60,-55.58,6.58,-22641.91,25.19,0.83,3.52
2025-04-29 17:18:18.862,42.15,-55.15,5.6,-22665.91,25.21,0.83,3.51
2025-04-29 17:18:19.422,42.71,-58.13,7.36,-22690.25,25.22,0.8,3.52
2025-04-29 17:18:19.989,43.28,-57.98,6.7,-22727.03,25.24,0.82,3.55
2025-04-29 17:18:20.550,43.84,-57.85,6.15,-22750.58,25.25,0.8,3.53
2025-04-29 17:18:21.104,44.39,-56.61,6.51,-22774.69,25.25,0.76,3.53
2025-04-29 17:18:21.665,44.95,-57.4,6.66,-22798.4,25.25,0.73,3.55
2025-04-29 17:18:22.225,45.51,-57.65,6.37,-22834.85,25.25,0.7,3.53
2025-04-29 17:18:22.790,46.08,-56.95,6.89,-22858.78,25.26,0.71,3.55
2025-04-29 17:18:23.345,46.63,-57.34,6.68,-22882.93,25.27,0.68,3.53
2025-04-29 17:18:23.909,47.20,-57.2,6.8,-22906.59,25.29,0.7,3.52
2025-04-29 17:18:24.466,47.76,-57.45,6.0,-22930.55,25.29,0.64,3.49
2025-04-29 17:18:25.026,48.31,-55.02,4.98,-22967.18,25.26,0.64,3.54
2025-04-29 17:18:25.556,48.85,-56.32,7.27,-22990.67,25.26,0.58,3.53
2025-04-29 17:18:26.060,49.35,-56.93,7.48,-23013.72,25.24,0.57,3.53
2025-04-29 17:18:26.619,49.91,-56.6,7.01,-23038.17,25.22,0.56,3.54
2025-04-29 17:18:27.191,50.48,-56.92,6.19,-23062.43,25.21,0.53,3.53
2025-04-29 17:18:27.739,51.03,-56.76,8.78,-23098.02,25.17,0.49,3.54
2025-04-29 17:18:28.304,51.59,-56.9,7.89,-23122.79,25.15,0.48,3.52
2025-04-29 17:18:28.866,52.15,-58.36,5.49,-23146.73,25.12,0.44,3.53
2025-04-29 17:18:29.415,52.70,-56.17,10.67,-23171.69,25.1,0.46,3.52
2025-04-29 17:18:29.977,53.27,-57.26,6.37,-23194.76,25.08,0.42,3.52
2025-04-29 17:18:30.540,53.83,-56.48,9.04,-23230.85,25.05,0.41,3.49
2025-04-29 17:18:31.098,54.39,-55.97,6.11,-23254.1,25.06,0.43,3.53
2025-04-29 17:18:31.660,54.95,-56.78,6.65,-23278.92,25.04,0.46,3.54
2025-04-29 17:18:32.214,55.50,-57.93,8.83,-23304.12,25.03,0.47,3.52
2025-04-29 17:18:32.781,56.07,-56.9,6.81,-23339.88,25.03,0.5,3.54
2025-04-29 17:18:33.337,56.63,-55.19,7.68,-23363.21,25.02,0.51,3.53
2025-04-29 17:18:33.896,57.19,-56.19,7.81,-23387.77,25.03,0.51,3.51
2025-04-29 17:18:34.458,57.75,-56.39,7.01,-23411.32,25.03,0.53,3.5
2025-04-29 17:18:35.018,58.31,-53.51,8.52,-23447.06,25.03,0.52,3.55
2025-04-29 17:18:35.580,58.87,-55.64,8.29,-23471.62,25.05,0.51,3.52
2025-04-29 17:18:36.134,59.42,-56.52,7.5,-23495.49,25.06,0.49,3.52
2025-04-29 17:18:36.697,59.99,-57.6,8.17,-23519.75,25.05,0.49,3.54
2025-04-29 17:18:37.256,60.54,-56.63,8.1,-23556.11,25.02,0.5,3.52
2025-04-29 17:18:37.829,61.12,-56.96,6.46,-23579.74,25.0,0.53,3.54
2025-04-29 17:18:38.372,61.66,-55.96,6.68,-23604.11,25.01,0.54,3.52
2025-04-29 17:18:38.932,62.22,-54.41,8.76,-23628.16,25.02,0.5,3.47
2025-04-29 17:18:39.486,62.78,-53.76,7.86,-23651.12,25.02,0.53,3.53
2025-04-29 17:18:40.024,63.31,-52.45,10.03,-23687.25,25.04,0.5,3.53
2025-04-29 17:18:40.571,63.86,-55.64,8.9,-23712.3,25.06,0.51,3.52
2025-04-29 17:18:41.119,64.41,-55.44,8.68,-23737.16,25.09,0.51,3.48
2025-04-29 17:18:41.662,64.95,-58.29,8.77,-23760.09,25.09,0.48,3.54
2025-04-29 17:18:42.210,65.50,-56.57,7.51,-23784.94,25.09,0.48,3.52
2025-04-29 17:18:42.771,66.06,-57.23,8.24,-23821.04,25.1,0.54,3.53
2025-04-29 17:18:43.336,66.62,-57.18,7.62,-23844.91,25.08,0.54,3.48
2025-04-29 17:18:43.893,67.18,-54.47,9.56,-23868.41,25.07,0.57,3.57
2025-04-29 17:18:44.461,67.75,-56.65,7.07,-23892.29,25.08,0.57,3.52
2025-04-29 17:18:45.061,68.35,-52.56,8.07,-23928.02,25.11,0.55,3.52
2025-04-29 17:18:45.574,68.86,-54.98,6.8,-23951.86,25.12,0.55,3.52
2025-04-29 17:18:46.133,69.42,-55.3,9.42,-23976.21,25.14,0.54,3.52
2025-04-29 17:18:46.692,69.98,-54.88,8.09,-23999.94,25.14,0.56,3.54
2025-04-29 17:18:47.255,70.54,-53.82,8.53,-24023.64,25.15,0.56,3.52
2025-04-29 17:18:47.812,71.10,-53.16,9.83,-24059.79,25.17,0.53,3.53
2025-04-29 17:18:48.374,71.66,-54.96,8.98,-24083.63,25.19,0.55,3.52
2025-04-29 17:18:48.928,72.22,-52.65,9.65,-24107.6,25.2,0.55,3.53
2025-04-29 17:18:49.488,72.78,-55.89,8.58,-24131.92,25.23,0.55,3.52
2025-04-29 17:18:50.051,73.34,-54.77,8.29,-24167.99,25.23,0.59,3.54
2025-04-29 17:18:50.610,73.90,-56.12,8.96,-24192.38,25.21,0.56,3.52
2025-04-29 17:18:51.171,74.46,-53.41,8.23,-24216.23,25.17,0.56,3.52
2025-04-29 17:18:51.726,75.02,-55.56,7.39,-24240.48,25.15,0.58,3.54
2025-04-29 17:18:52.297,75.59,-53.24,7.75,-24277.43,25.13,0.59,3.52
2025-04-29 17:18:52.849,76.14,-54.51,6.83,-24302.04,25.11,0.55,3.52
2025-04-29 17:18:53.410,76.70,-55.93,8.77,-24325.96,25.11,0.57,3.52
2025-04-29 17:18:53.934,77.22,-60.73,7.69,-24357.34,25.08,0.52,3.52
2025-04-29 17:18:54.446,77.73,-51.59,-11.04,-24386.31,25.07,0.52,3.52
2025-04-29 17:18:55.011,78.30,-8.12,-5.97,-24409.89,25.06,0.48,3.53
2025-04-29 17:18:55.576,78.87,21.48,-0.93,-24446.86,25.04,0.6,3.52
2025-04-29 17:18:56.084,79.37,27.71,-2.28,-24472.5,25.02,0.71,3.49
2025-04-29 17:18:56.592,79.88,20.35,0.35,-24491.37,25.02,0.71,3.54
2025-04-29 17:18:57.158,80.45,44.13,9.5,-24515.34,25.0,0.77,3.45
2025-04-29 17:18:57.714,81.00,45.77,9.51,-24528.82,24.98,0.88,3.45
2025-04-29 17:18:58.310,81.60,55.38,-12.95,-24556.51,24.93,1.15,3.55
2025-04-29 17:18:58.872,82.16,60.22,-14.66,-24575.93,24.92,1.15,3.49
2025-04-29 17:18:59.515,82.80,46.89,-33.15,-24582.69,24.89,1.24,3.52
2025-04-29 17:19:00.068,83.36,30.09,-60.15,-24599.72,24.84,1.37,3.52
2025-04-29 17:19:00.630,83.92,17.39,-31.42,-24632.62,24.82,1.52,3.48
2025-04-29 17:19:01.157,84.45,37.13,-32.64,-24660.82,24.8,1.54,3.52
2025-04-29 17:19:01.679,84.97,37.74,-28.15,-24696.32,24.79,1.54,3.53
2025-04-29 17:19:02.183,85.47,96.16,-51.7,-24707.61,24.76,1.65,3.52
2025-04-29 17:19:02.755,86.04,13.98,-38.52,-24739.72,24.74,1.62,3.52
2025-04-29 17:19:03.267,86.56,36.19,-14.26,-24783.53,24.73,1.61,3.53
2025-04-29 17:19:03.871,87.16,48.75,-22.97,-24822.91,24.69,1.71,3.52
2025-04-29 17:19:04.483,87.77,47.81,-9.95,-24850.98,24.67,1.75,3.55
2025-04-29 17:19:05.041,88.33,48.71,-8.27,-24878.29,24.63,1.79,3.54
2025-04-29 17:19:05.631,88.92,63.39,12.34,-24933.33,24.59,1.81,3.52
2025-04-29 17:19:06.208,89.50,52.26,25.82,-24971.07,24.58,1.81,3.52
2025-04-29 17:19:06.716,90.01,59.18,16.68,-24991.09,24.57,1.79,3.53
2025-04-29 17:19:07.228,90.52,55.49,17.35,-25013.46,24.54,1.81,3.52
2025-04-29 17:19:07.749,91.04,43.74,10.95,-25038.92,24.53,1.84,3.49
2025-04-29 17:19:08.269,91.56,56.86,16.61,-25064.31,24.5,1.85,3.49
2025-04-29 17:19:08.895,92.18,54.15,-5.18,-25068.89,24.48,1.84,3.52
2025-04-29 17:19:09.468,92.76,40.52,-32.92,-25069.87,24.45,1.87,3.5
2025-04-29 17:19:09.985,93.27,25.57,-36.51,-25085.54,24.44,1.88,3.51
2025-04-29 17:19:10.546,93.84,37.27,-32.17,-25113.03,24.4,1.96,3.55
2025-04-29 17:19:11.103,94.39,36.69,-12.83,-25163.05,24.38,2.0,3.47
2025-04-29 17:19:11.664,94.95,21.64,2.58,-25201.58,24.36,2.0,3.53
2025-04-29 17:19:12.207,95.50,17.63,17.0,-25242.08,24.34,1.98,3.48
2025-04-29 17:19:12.763,96.05,13.75,26.18,-25281.4,24.32,1.95,3.52
2025-04-29 17:19:13.318,96.61,-9.07,45.57,-25325.92,24.33,1.93,3.52
2025-04-29 17:19:13.850,97.14,-19.01,57.41,-25363.24,24.32,1.72,3.48
2025-04-29 17:19:14.355,97.64,-24.54,54.64,-25398.82,24.34,-1.08,3.52
2025-04-29 17:19:14.918,98.21,-38.08,42.2,-25439.51,24.34,-1.19,3.52
2025-04-29 17:19:15.476,98.76,-56.63,29.88,-25472.65,24.37,-1.46,3.52
2025-04-29 17:19:16.034,99.32,-45.4,39.37,-25481.54,24.4,-20.05,3.52
2025-04-29 17:19:16.596,99.89,-32.69,45.74,-25514.44,24.42,-18.96,3.52
2025-04-29 17:19:17.155,100.44,-31.39,49.72,-25535.0,24.41,-17.9,3.52
2025-04-29 17:19:17.717,101.01,-22.88,58.05,-25552.13,24.41,-17.17,3.5
2025-04-29 17:19:18.274,101.56,-25.82,57.28,-25583.36,24.41,-16.21,3.52
2025-04-29 17:19:18.835,102.12,-35.36,45.12,-25619.41,24.45,-15.63,3.52
2025-04-29 17:19:19.395,102.68,-23.68,54.55,-25634.91,24.43,-16.64,3.51
2025-04-29 17:19:19.954,103.24,-19.16,62.32,-25659.38,24.44,-15.68,3.5
2025-04-29 17:19:20.515,103.80,-24.05,52.05,-25679.86,24.45,-14.77,3.52
2025-04-29 17:19:21.083,104.37,-16.8,59.6,-25714.2,24.48,-13.91,3.52
2025-04-29 17:19:21.635,104.92,-84.68,66.55,-25737.21,24.47,-13.05,3.56
2025-04-29 17:19:22.199,105.49,5.31,62.28,-25741.8,24.46,-12.19,3.52
2025-04-29 17:19:22.772,106.06,7.72,39.81,-25745.36,24.47,-11.31,3.45
2025-04-29 17:19:23.294,106.58,26.64,37.35,-25751.24,24.45,-10.44,3.53
2025-04-29 17:19:23.821,107.11,53.68,14.9,-25754.21,24.43,-9.61,3.54
2025-04-29 17:19:24.388,107.68,52.58,-18.92,-25763.22,24.39,-8.88,3.53
2025-04-29 17:19:24.994,108.28,60.55,-18.49,-25785.62,24.37,-8.14,3.47
2025-04-29 17:19:25.606,108.89,45.28,-19.49,-25820.23,24.34,-7.44,3.52
2025-04-29 17:19:26.141,109.43,67.17,-5.09,-25856.81,24.32,-6.75,3.5
2025-04-29 17:19:26.742,110.03,59.85,-20.11,-25875.45,24.28,-6.12,3.51
2025-04-29 17:19:27.300,110.59,47.64,-29.0,-25889.48,24.27,-5.52,3.55
2025-04-29 17:19:27.824,111.11,53.85,-29.37,-25911.42,24.24,-4.92,3.51
2025-04-29 17:19:28.356,111.64,46.24,-37.66,-25942.35,24.2,-4.36,3.51
2025-04-29 17:19:28.953,112.24,37.4,-26.48,-25973.71,24.18,-3.91,3.48
2025-04-29 17:19:29.553,112.84,42.48,-18.42,-26006.39,24.15,-3.5,3.52
2025-04-29 17:19:30.099,113.39,41.82,-11.05,-26046.53,24.14,-3.16,3.46
2025-04-29 17:19:30.718,114.01,46.72,-9.24,-26067.84,24.12,-2.8,3.48
2025-04-29 17:19:31.307,114.60,57.35,-21.83,-26076.95,24.09,-2.44,3.5
2025-04-29 17:19:31.810,115.10,39.33,-47.12,-26079.21,24.07,-2.16,3.49
2025-04-29 17:19:32.361,115.65,2.63,-47.79,-26092.33,24.04,-1.93,3.51
2025-04-29 17:19:32.923,116.21,-10.79,-36.38,-26107.0,24.04,-1.73,3.5
2025-04-29 17:19:33.474,116.76,-23.88,-28.79,-26130.0,24.02,-1.52,3.5
2025-04-29 17:19:34.032,117.32,-32.04,-40.37,-26152.11,24.0,-1.29,3.5
2025-04-29 17:19:34.599,117.89,-28.31,-43.64,-26179.92,23.95,-1.04,3.5
2025-04-29 17:19:35.155,118.44,-13.89,-58.52,-26230.32,23.93,-0.81,3.47
2025-04-29 17:19:35.722,119.01,-1.77,-57.52,-26264.78,23.89,-0.65,3.5
2025-04-29 17:19:36.339,119.63,20.34,-59.11,-26303.24,23.88,-0.47,3.53
2025-04-29 17:19:36.893,120.18,33.76,-45.41,-26354.84,23.83,-0.2,3.5
2025-04-29 17:19:37.415,120.70,21.37,-41.39,-26375.11,23.81,-0.03,3.52
2025-04-29 17:19:37.935,121.22,39.8,-28.8,-26415.98,23.79,0.21,3.47
2025-04-29 17:19:38.436,121.72,37.48,-29.24,-26440.53,23.76,0.49,3.52
2025-04-29 17:19:39.029,122.32,53.12,-32.51,-26462.89,23.73,0.66,3.53
2025-04-29 17:19:39.576,122.86,48.42,-29.83,-26482.92,23.69,0.82,3.5
2025-04-29 17:19:40.131,123.42,50.74,-34.16,-26516.44,23.67,0.99,3.5
2025-04-29 17:19:40.697,123.99,33.97,-41.31,-26535.15,23.64,1.08,3.5
2025-04-29 17:19:41.248,124.54,69.28,-46.1,-26560.06,23.61,1.28,3.5
2025-04-29 17:19:41.811,125.10,23.7,-27.33,-26590.95,23.59,1.36,3.5
2025-04-29 17:19:42.372,125.66,30.7,-43.27,-26617.03,23.57,1.52,3.49
2025-04-29 17:19:42.945,126.23,38.06,-33.02,-26649.75,23.55,1.58,3.46
2025-04-29 17:19:43.561,126.85,43.77,-21.83,-26683.3,23.53,1.68,3.54
2025-04-29 17:19:44.086,127.38,41.82,-37.11,-26694.38,23.52,1.8,3.47
2025-04-29 17:19:44.652,127.94,25.49,-41.92,-26723.91,23.5,1.83,3.5
2025-04-29 17:19:45.166,128.46,40.27,-39.06,-26756.91,23.49,1.9,3.49
2025-04-29 17:19:45.729,129.02,46.04,-34.95,-26781.25,23.47,1.95,3.5
2025-04-29 17:19:46.251,129.54,48.23,-36.61,-26805.23,23.45,2.04,3.5
2025-04-29 17:19:46.846,130.13,34.1,-35.82,-26832.38,23.44,2.06,3.5
2025-04-29 17:19:47.416,130.71,52.07,-16.62,-26893.98,23.42,2.16,3.5
2025-04-29 17:19:48.042,131.33,63.31,-1.82,-26929.11,23.4,2.19,3.51
2025-04-29 17:19:48.546,131.83,66.47,-5.54,-26950.82,23.39,2.27,3.55
2025-04-29 17:19:49.104,132.39,67.85,-9.99,-26973.36,23.37,2.28,3.5
2025-04-29 17:19:49.712,133.00,71.87,-13.44,-27010.36,23.33,2.33,3.49
2025-04-29 17:19:50.285,133.57,42.31,-40.03,-27010.29,23.33,2.47,3.42
2025-04-29 17:19:50.862,134.15,52.21,-20.04,-27048.64,23.31,2.48,3.49
2025-04-29 17:19:51.446,134.74,52.99,-21.78,-27077.2,23.28,2.47,3.48
2025-04-29 17:19:52.014,135.30,51.99,-14.39,-27104.56,23.27,2.55,3.53
2025-04-29 17:19:52.603,135.89,50.14,-31.24,-27123.59,23.26,2.69,3.49
2025-04-29 17:19:53.190,136.48,44.67,-22.42,-27151.49,23.23,2.65,3.5
2025-04-29 17:19:53.779,137.07,33.8,-27.41,-27177.29,23.22,2.71,3.46
2025-04-29 17:19:54.284,137.57,51.51,-17.91,-27208.38,23.2,2.73,3.49
2025-04-29 17:19:54.896,138.18,42.22,-26.99,-27238.09,23.19,2.77,3.46
2025-04-29 17:19:55.408,138.70,45.64,-35.15,-27262.61,23.18,2.77,3.49
2025-04-29 17:19:55.973,139.26,48.89,-35.57,-27289.27,23.17,2.78,3.5
2025-04-29 17:19:56.547,139.84,41.69,-25.01,-27325.37,23.15,2.81,3.53
2025-04-29 17:19:57.132,140.42,44.49,-24.91,-27348.42,23.14,2.86,3.44
2025-04-29 17:19:57.648,140.94,71.33,-12.61,-27394.71,23.13,2.9,3.49
2025-04-29 17:19:58.267,141.56,86.54,-8.56,-27429.48,23.11,2.85,3.49
2025-04-29 17:19:58.845,142.13,106.41,-13.5,-27450.59,23.1,2.79,3.49
2025-04-29 17:19:59.445,142.73,95.25,-13.81,-27488.42,23.09,2.58,3.5
2025-04-29 17:19:59.949,143.24,92.17,-1.42,-27514.22,23.09,2.58,3.49
2025-04-29 17:20:00.467,143.76,92.26,-1.33,-27538.31,23.09,2.55,3.49
2025-04-29 17:20:01.023,144.31,92.15,-1.31,-27562.34,23.1,2.46,3.5
2025-04-29 17:20:01.595,144.88,92.11,-1.29,-27586.38,23.11,2.43,3.52
2025-04-29 17:20:02.239,145.53,92.14,-1.23,-27622.38,23.1,2.38,3.5
2025-04-29 17:20:02.885,146.17,92.23,-1.2,-27646.5,23.11,2.31,3.51
2025-04-29 17:20:03.401,146.69,52.23,-10.45,-27675.41,23.11,2.17,3.48
2025-04-29 17:20:04.072,147.36,49.49,16.93,-27720.9,23.11,2.12,3.52
2025-04-29 17:20:04.635,147.92,39.55,32.78,-27778.71,23.11,2.12,3.5
2025-04-29 17:20:05.359,148.65,12.31,21.54,-27811.68,23.12,2.13,3.52
2025-04-29 17:20:05.860,149.15,45.86,15.15,-27819.8,23.12,2.14,3.5
2025-04-29 17:20:06.422,149.71,136.75,39.49,-27883.85,23.13,2.19,3.5
2025-04-29 17:20:06.977,150.27,-13.75,21.89,-27898.76,23.15,2.16,3.52
2025-04-29 17:20:07.506,150.79,-42.64,4.19,-27914.67,23.14,2.05,3.5
2025-04-29 17:20:08.016,151.31,-16.06,-6.91,-27943.31,23.12,1.99,3.5
2025-04-29 17:20:08.575,151.86,-45.36,12.04,-27975.0,23.13,1.88,3.5
2025-04-29 17:20:09.132,152.42,-28.14,1.89,-28008.79,23.13,1.85,3.49
2025-04-29 17:20:09.693,152.98,-18.84,-23.86,-28043.93,23.12,1.88,3.5
2025-04-29 17:20:10.255,153.54,-18.22,-14.1,-28059.07,23.12,1.86,3.52
2025-04-29 17:20:10.815,154.10,-10.18,-2.53,-28084.55,23.11,1.88,3.46
2025-04-29 17:20:11.375,154.66,-11.95,1.1,-28097.19,23.11,1.89,3.5
2025-04-29 17:20:11.935,155.22,-30.59,-6.06,-28124.9,23.08,1.89,3.49
2025-04-29 17:20:12.491,155.78,-40.13,-7.09,-28154.67,23.06,1.86,3.5
2025-04-29 17:20:13.052,156.34,-44.96,-17.14,-28183.92,23.05,1.83,3.51
2025-04-29 17:20:13.613,156.90,-132.03,-46.94,-28215.85,23.05,1.86,3.5
2025-04-29 17:20:14.177,157.47,-62.53,-7.41,-28229.07,23.03,1.85,3.52
2025-04-29 17:20:14.779,158.07,-69.88,-11.21,-28253.18,23.01,1.84,3.49
2025-04-29 17:20:15.294,158.58,-64.78,-18.3,-28281.83,23.01,1.82,3.49
2025-04-29 17:20:15.849,159.14,-62.55,1.16,-28307.18,23.01,1.78,3.5
2025-04-29 17:20:16.412,159.70,-59.77,-22.02,-28338.61,23.01,1.78,3.48
2025-04-29 17:20:16.968,160.26,-67.01,-15.97,-28361.35,23.01,1.71,3.5
2025-04-29 17:20:17.529,160.82,-60.6,-41.84,-28393.09,23.01,1.75,3.5
2025-04-29 17:20:18.089,161.38,-112.1,-36.65,-28437.24,23.02,1.78,3.49
2025-04-29 17:20:18.651,161.94,-96.37,-34.82,-28449.51,23.01,1.78,3.47
2025-04-29 17:20:19.218,162.51,-122.66,-30.43,-28491.41,23.03,1.81,3.48
2025-04-29 17:20:19.774,163.06,-122.02,-28.57,-28518.56,23.05,1.78,3.49
2025-04-29 17:20:20.335,163.62,-119.64,-26.33,-28543.29,23.05,1.81,3.49
2025-04-29 17:20:20.895,164.18,-122.88,-23.73,-28563.52,23.06,1.77,3.51
2025-04-29 17:20:21.449,164.74,-123.93,-26.03,-28586.18,23.05,1.81,3.5
2025-04-29 17:20:22.011,165.30,-125.46,-30.22,-28606.09,23.05,1.86,3.47
2025-04-29 17:20:22.569,165.86,-124.54,-31.07,-28632.7,23.05,1.84,3.49
2025-04-29 17:20:23.126,166.41,-125.8,-33.81,-28659.25,23.04,1.89,3.44
2025-04-29 17:20:23.688,166.98,-120.44,-26.51,-28698.52,23.06,1.85,3.48
2025-04-29 17:20:24.219,167.51,-121.15,-22.21,-28730.68,23.06,1.84,3.49
2025-04-29 17:20:24.736,168.03,-122.17,-24.46,-28758.27,23.05,1.81,3.49
2025-04-29 17:20:25.296,168.59,-122.01,-26.48,-28778.94,23.06,1.79,3.49
2025-04-29 17:20:25.846,169.13,-121.42,-23.68,-28792.69,23.06,1.79,3.49
2025-04-29 17:20:26.404,169.69,-132.95,-31.36,-28810.05,23.06,1.77,3.49
2025-04-29 17:20:26.965,170.25,-126.77,-36.88,-28838.09,23.06,1.85,3.49
2025-04-29 17:20:27.526,170.82,-131.53,-39.11,-28864.0,23.06,1.85,3.49
2025-04-29 17:20:28.087,171.38,-127.62,-29.91,-28886.89,23.06,1.85,3.49
2025-04-29 17:20:28.644,171.93,-130.87,-31.95,-28914.96,23.06,1.87,3.49
2025-04-29 17:20:29.207,172.50,-128.04,-38.06,-28947.16,23.06,1.91,3.49
2025-04-29 17:20:29.768,173.06,-126.75,-33.96,-28976.7,23.06,1.91,3.54
2025-04-29 17:20:30.323,173.61,-128.12,-27.52,-29004.22,23.08,1.91,3.49
2025-04-29 17:20:30.884,174.17,-127.11,-22.58,-29034.87,23.08,1.88,3.44
2025-04-29 17:20:31.450,174.74,-131.04,-11.09,-29067.87,23.09,1.83,3.47
2025-04-29 17:20:32.017,175.31,-174.62,36.98,-29120.26,23.12,1.75,3.49
2025-04-29 17:20:32.566,175.86,-154.9,28.37,-29155.28,23.13,1.75,3.48
2025-04-29 17:20:33.133,176.42,-129.57,16.67,-29212.47,23.12,1.71,3.49
2025-04-29 17:20:33.687,176.98,-152.86,58.99,-29225.39,23.15,1.5,3.46
2025-04-29 17:20:34.255,177.54,-141.16,16.27,-29251.45,23.2,1.28,3.47
2025-04-29 17:20:34.806,178.09,-141.09,22.16,-29275.24,23.19,1.28,3.51
2025-04-29 17:20:35.384,178.67,-140.9,22.71,-29290.6,23.17,1.23,3.49
2025-04-29 17:20:35.927,179.22,-141.39,13.95,-29311.64,23.21,0.89,3.49
2025-04-29 17:20:36.492,179.78,-141.61,16.23,-29349.03,23.28,0.07,3.49
2025-04-29 17:20:37.045,180.33,-145.39,20.89,-29373.24,23.31,0.07,3.49
2025-04-29 17:20:37.606,180.89,-142.42,26.34,-29396.81,23.33,0.09,3.49
2025-04-29 17:20:38.165,181.45,-143.78,32.15,-29418.33,23.33,0.11,3.49
2025-04-29 17:20:38.725,182.01,-137.94,17.02,-29451.91,23.38,-0.58,3.52
2025-04-29 17:20:39.291,182.58,-130.88,3.16,-29474.89,23.39,-1.17,3.45
2025-04-29 17:20:39.888,183.18,-127.63,-10.67,-29493.67,23.4,-1.17,3.49
2025-04-29 17:20:40.451,183.74,-129.0,-6.23,-29520.2,23.43,-1.06,3.45
2025-04-29 17:20:41.004,184.29,-123.62,0.33,-29555.38,23.46,-0.89,3.49
2025-04-29 17:20:41.569,184.86,-123.03,-3.24,-29577.25,23.49,-0.79,3.49
2025-04-29 17:20:42.123,185.41,-123.34,-5.5,-29600.37,23.5,-0.79,3.49
2025-04-29 17:20:42.686,185.98,-123.11,-8.77,-29633.78,23.51,-0.72,3.46
2025-04-29 17:20:43.243,186.53,-121.86,-1.88,-29675.96,23.54,-0.66,3.49
2025-04-29 17:20:43.804,187.09,-121.12,-7.94,-29699.03,23.57,-0.64,3.5
2025-04-29 17:20:44.366,187.65,-120.9,-7.36,-29722.07,23.59,-0.64,3.47
2025-04-29 17:20:44.939,188.23,-120.92,-8.44,-29746.04,23.61,-0.59,3.49
2025-04-29 17:20:45.491,188.78,-120.07,-2.6,-29781.71,23.64,-0.53,3.47
2025-04-29 17:20:46.044,189.33,-118.29,-9.91,-29805.82,23.67,-0.47,3.49
2025-04-29 17:20:46.606,189.89,-120.42,-6.36,-29829.49,23.69,-0.47,3.49
2025-04-29 17:20:47.169,190.46,-119.36,-7.88,-29852.21,23.72,-0.45,3.49
2025-04-29 17:20:47.781,191.07,-119.35,-10.01,-29883.85,23.75,-0.35,3.49
2025-04-29 17:20:48.285,191.57,-114.45,-8.66,-29907.64,23.77,-0.32,3.49
2025-04-29 17:20:48.841,192.13,-110.57,-15.51,-29930.66,23.77,-0.32,3.5
2025-04-29 17:20:49.400,192.69,-120.15,1.12,-29951.74,23.79,-0.29,3.49
2025-04-29 17:20:49.962,193.25,-126.82,27.98,-29976.93,23.82,-1.78,3.49
2025-04-29 17:20:50.529,193.82,-129.62,28.56,-30010.5,23.91,-2.56,3.49
2025-04-29 17:20:51.075,194.36,-131.71,32.09,-30032.88,23.93,-2.56,3.48
2025-04-29 17:20:51.638,194.93,-130.01,12.13,-30052.59,23.96,-2.43,3.45
2025-04-29 17:20:52.201,195.49,-157.17,51.86,-30046.1,23.99,-2.39,3.49
2025-04-29 17:20:52.757,196.05,-150.91,57.74,-30065.58,24.05,-19.61,3.49
2025-04-29 17:20:53.315,196.60,-27.22,55.53,-30093.42,24.06,-18.44,3.49
2025-04-29 17:20:53.886,197.17,-8.9,32.69,-30099.53,24.06,-18.44,3.46
2025-04-29 17:20:54.414,197.70,-5.08,33.67,-30073.48,24.04,-17.27,3.48
2025-04-29 17:20:54.965,198.25,15.07,27.76,-30076.72,24.0,-16.09,3.44
2025-04-29 17:20:55.584,198.87,4.38,27.09,-30138.26,23.98,-13.91,3.49
2025-04-29 17:20:56.131,199.42,16.95,25.18,-30151.98,23.96,-13.91,3.48
2025-04-29 17:20:56.687,199.98,13.77,17.55,-30172.21,23.94,-12.9,3.49
2025-04-29 17:20:57.210,200.50,13.88,19.83,-30196.36,23.93,-11.99,3.53
2025-04-29 17:20:57.777,201.07,5.79,19.4,-30226.69,23.92,-10.29,3.54
2025-04-29 17:20:58.323,201.61,7.89,21.91,-30241.33,23.9,-10.29,3.45
2025-04-29 17:20:58.887,202.18,10.01,22.46,-30263.67,23.89,-9.52,3.54
2025-04-29 17:20:59.504,202.79,8.38,20.95,-30297.53,23.88,-8.09,3.5
2025-04-29 17:21:00.007,203.30,8.89,18.7,-30326.37,23.86,-7.48,3.47
2025-04-29 17:21:00.526,203.81,7.76,18.0,-30352.45,23.84,-7.48,3.55
2025-04-29 17:21:01.091,204.38,6.46,19.31,-30366.81,23.84,-6.89,3.48
2025-04-29 17:21:01.642,204.93,7.29,17.27,-30385.03,23.82,-6.32,3.52
2025-04-29 17:21:02.208,205.50,9.74,18.87,-30416.31,23.82,-5.78,3.49
2025-04-29 17:21:02.755,206.04,6.41,18.54,-30453.35,23.8,-5.33,3.49
2025-04-29 17:21:03.326,206.61,7.69,16.57,-30483.54,23.8,-4.85,3.48
2025-04-29 17:21:03.888,207.18,7.58,15.81,-30510.0,23.8,-4.43,3.49
2025-04-29 17:21:04.447,207.74,8.48,12.54,-30544.93,23.8,-4.03,3.48
2025-04-29 17:21:05.001,208.29,4.2,13.4,-30571.29,23.79,-3.62,3.49
2025-04-29 17:21:05.528,208.82,5.89,11.75,-30595.55,23.78,-3.25,3.48
2025-04-29 17:21:06.039,209.33,5.77,12.39,-30624.96,23.77,-2.91,3.47
2025-04-29 17:21:06.614,209.90,6.76,11.88,-30647.11,23.74,-2.61,3.5
2025-04-29 17:21:07.152,210.44,-1.8,7.48,-30649.05,23.7,-2.26,3.48
2025-04-29 17:21:07.717,211.01,-1.35,4.76,-30684.94,23.68,-2.01,3.49
2025-04-29 17:21:08.285,211.57,6.86,4.25,-30738.85,23.65,-1.72,3.48
2025-04-29 17:21:08.842,212.13,7.16,4.45,-30756.3,23.62,-1.46,3.47
2025-04-29 17:21:09.399,212.69,6.45,5.09,-30784.04,23.6,-1.21,3.48
2025-04-29 17:21:09.957,213.25,4.86,4.57,-30806.52,23.59,-1.02,3.49
2025-04-29 17:21:10.526,213.81,5.08,4.73,-30842.79,23.57,-0.78,3.48
2025-04-29 17:21:11.076,214.36,5.28,4.79,-30868.38,23.55,-0.54,3.49
2025-04-29 17:21:11.637,214.93,7.48,6.17,-30894.39,23.5,-0.36,3.49
2025-04-29 17:21:12.204,215.49,11.09,6.52,-30925.56,23.46,-0.16,3.49
2025-04-29 17:21:12.758,216.05,8.19,6.92,-30947.69,23.41,0.01,3.49
2025-04-29 17:21:13.319,216.61,7.5,4.74,-30989.87,23.36,0.16,3.48
2025-04-29 17:21:13.885,217.17,7.62,6.51,-31019.38,23.34,0.29,3.48
2025-04-29 17:21:14.412,217.70,11.41,17.46,-31026.68,23.31,0.44,3.48
2025-04-29 17:21:14.958,218.25,6.76,30.07,-31039.24,23.29,0.52,3.47
2025-04-29 17:21:15.464,218.75,19.18,28.46,-31072.05,23.27,0.61,3.45
2025-04-29 17:21:16.052,219.34,15.47,11.79,-31124.86,23.27,0.71,3.48
2025-04-29 17:21:16.615,219.90,15.93,22.44,-31154.01,23.23,0.74,3.48
2025-04-29 17:21:17.126,220.42,15.58,25.08,-31180.71,23.21,0.76,3.49
2025-04-29 17:21:17.705,220.99,15.55,25.55,-31202.39,23.17,0.77,3.48
2025-04-29 17:21:18.292,221.58,12.6,25.89,-31236.64,23.12,0.79,3.48
2025-04-29 17:21:18.848,222.14,15.72,25.29,-31261.65,23.09,0.87,3.47
2025-04-29 17:21:19.413,222.70,9.91,24.28,-31284.58,23.07,0.9,3.5
2025-04-29 17:21:19.962,223.25,1.52,21.74,-31302.2,23.04,0.89,3.48
2025-04-29 17:21:20.466,223.75,-15.64,37.54,-31288.1,23.02,0.96,3.48
2025-04-29 17:21:21.113,224.40,-8.5,42.64,-31304.46,22.99,1.03,3.48
2025-04-29 17:21:21.663,224.95,-11.47,29.57,-31354.87,22.95,1.03,3.49
2025-04-29 17:21:22.293,225.58,-4.8,30.93,-31394.28,22.9,1.02,3.42
2025-04-29 17:21:22.873,226.16,-29.33,28.39,-31411.43,22.88,1.06,3.48
2025-04-29 17:21:23.380,226.67,-51.82,-5.99,-31495.22,22.88,1.06,3.47
2025-04-29 17:21:23.946,227.23,-126.77,-16.09,-31553.77,22.85,1.07,3.47
2025-04-29 17:21:24.506,227.79,-162.64,-74.09,-31599.1,22.85,1.06,3.49
2025-04-29 17:21:25.064,228.35,-47.83,-76.44,-31625.8,22.85,1.07,3.47
2025-04-29 17:21:25.621,228.91,-141.05,-57.97,-31643.03,22.84,1.11,3.49
2025-04-29 17:21:26.188,229.48,-143.0,-50.8,-31692.16,22.82,1.12,3.48
2025-04-29 17:21:26.690,229.98,175.89,-60.75,-31723.59,22.81,1.13,3.5
2025-04-29 17:21:27.244,230.53,166.08,-57.65,-31749.24,22.79,1.2,3.48
2025-04-29 17:21:27.792,231.08,-161.34,-59.66,-31769.56,22.76,1.27,3.47
2025-04-29 17:21:28.348,231.64,-158.48,-41.1,-31791.95,22.76,1.24,3.45
2025-04-29 17:21:28.912,232.20,120.7,-71.29,-31825.94,22.74,1.22,3.48
2025-04-29 17:21:29.460,232.75,-60.44,-53.39,-31817.98,22.73,1.21,3.48
2025-04-29 17:21:29.993,233.28,-39.65,-47.93,-31823.0,22.71,1.19,3.48
2025-04-29 17:21:30.501,233.79,-48.05,-37.29,-31848.5,22.7,1.16,3.48
2025-04-29 17:21:31.069,234.36,-34.84,-51.02,-31893.72,22.71,1.13,3.48
2025-04-29 17:21:31.623,234.91,-34.01,-51.4,-31919.07,22.69,1.15,3.5
2025-04-29 17:21:32.180,235.47,-35.79,-48.18,-31943.36,22.67,1.1,3.49
2025-04-29 17:21:32.739,236.03,-35.35,-49.02,-31970.28,22.68,1.1,3.47
2025-04-29 17:21:33.304,236.59,-32.5,-52.33,-32011.93,22.66,1.1,3.45
2025-04-29 17:21:33.861,237.15,-25.72,-59.12,-32041.63,22.66,1.13,3.47
2025-04-29 17:21:34.426,237.72,-18.34,-64.65,-32076.75,22.64,1.13,3.48
2025-04-29 17:21:34.985,238.27,-12.02,-62.85,-32099.71,22.63,1.15,3.48
2025-04-29 17:21:35.538,238.83,-20.96,-63.54,-32115.15,22.63,1.15,3.47
2025-04-29 17:21:36.102,239.39,-23.21,-62.5,-32155.74,22.6,1.15,3.48
2025-04-29 17:21:36.660,239.95,-16.8,-68.77,-32183.02,22.59,1.19,3.47
2025-04-29 17:21:37.221,240.51,-11.48,-72.62,-32205.8,22.57,1.23,3.49
2025-04-29 17:21:37.779,241.07,-29.09,-62.3,-32222.21,22.57,1.23,3.53
2025-04-29 17:21:38.361,241.65,-19.08,-66.92,-32264.29,22.58,1.21,3.49
2025-04-29 17:21:38.903,242.19,-17.47,-67.85,-32290.57,22.58,1.22,3.48
2025-04-29 17:21:39.458,242.75,-17.54,-68.09,-32311.69,22.58,1.19,3.48
2025-04-29 17:21:40.016,243.30,-22.81,-63.28,-32332.24,22.58,1.19,3.48
2025-04-29 17:21:40.580,243.87,-20.59,-65.36,-32370.69,22.55,1.17,3.47
2025-04-29 17:21:41.144,244.43,-19.09,-66.36,-32398.57,22.54,1.18,3.47
2025-04-29 17:21:41.692,244.98,-5.03,-76.06,-32437.03,22.53,1.14,3.47
2025-04-29 17:21:42.250,245.54,7.23,-71.76,-32473.15,22.52,1.14,3.49
2025-04-29 17:21:42.816,246.10,0.64,-61.49,-32481.71,22.53,1.16,3.47
2025-04-29 17:21:43.371,246.66,-33.46,-45.14,-32484.76,22.54,1.07,3.48
2025-04-29 17:21:43.932,247.22,-50.31,10.52,-32490.52,22.57,1.0,3.48
2025-04-29 17:21:44.500,247.79,-57.42,-15.87,-32528.1,22.57,1.0,3.48
2025-04-29 17:21:45.051,248.34,-66.7,-28.76,-32555.48,22.58,0.96,3.45
2025-04-29 17:21:45.611,248.90,-70.14,-11.57,-32572.66,22.6,0.92,3.48
2025-04-29 17:21:46.171,249.46,-60.19,-11.41,-32602.39,22.61,0.88,3.48
2025-04-29 17:21:46.731,250.02,-51.61,-9.79,-32633.2,22.61,0.83,3.47
2025-04-29 17:21:47.293,250.58,-34.92,-21.44,-32665.87,22.62,0.83,3.47
2025-04-29 17:21:47.853,251.14,-38.04,-26.36,-32697.98,22.62,0.67,3.48
2025-04-29 17:21:48.413,251.70,-38.09,-23.93,-32724.03,22.63,0.62,3.48
2025-04-29 17:21:48.970,252.26,-40.59,-24.21,-32753.56,22.63,0.56,3.45
2025-04-29 17:21:49.530,252.82,-36.86,-22.67,-32775.57,22.64,0.56,3.48
2025-04-29 17:21:50.089,253.38,-65.74,-8.6,-32800.78,22.65,0.46,3.47
2025-04-29 17:21:50.649,253.94,-45.86,-14.4,-32839.79,22.66,0.49,3.47
2025-04-29 17:21:51.219,254.51,-16.33,7.14,-32886.3,22.65,0.6,3.49
2025-04-29 17:21:51.768,255.06,-33.58,-5.74,-32939.95,22.64,0.6,3.48
2025-04-29 17:21:52.334,255.62,-27.17,1.39,-32994.14,22.64,0.6,3.45
2025-04-29 17:21:52.889,256.18,-46.34,-31.87,-33028.12,22.68,-6.97,3.48
2025-04-29 17:21:53.420,256.71,-43.93,-29.09,-33059.09,22.7,-8.09,3.48
2025-04-29 17:21:53.931,257.22,-49.46,-26.55,-33073.81,22.72,-8.09,3.5
2025-04-29 17:21:54.490,257.78,-70.17,-14.13,-33096.97,22.75,-8.65,3.47
2025-04-29 17:21:55.052,258.34,-63.85,-11.84,-33102.43,22.75,-8.08,3.49
2025-04-29 17:21:55.611,258.90,-20.09,59.34,-33093.58,22.8,-8.07,3.48
2025-04-29 17:21:56.176,259.46,-7.44,72.4,-33115.38,22.8,-8.07,3.45
2025-04-29 17:21:56.726,260.02,-37.89,47.38,-33163.87,22.8,-7.51,3.49
2025-04-29 17:21:57.291,260.58,-34.99,51.87,-33198.77,22.8,-7.08,3.47
2025-04-29 17:21:57.851,261.14,-53.66,31.36,-33248.76,22.82,-6.16,3.47
2025-04-29 17:21:58.410,261.70,-58.16,25.99,-33279.31,22.84,-6.16,3.47
2025-04-29 17:21:58.973,262.26,-58.97,25.64,-33305.55,22.85,-5.71,3.47
2025-04-29 17:21:59.527,262.82,-61.78,21.97,-33326.85,22.87,-5.25,3.48
2025-04-29 17:22:00.085,263.37,-61.39,22.0,-33346.57,22.9,-4.84,3.49
2025-04-29 17:22:00.650,263.94,-46.66,29.3,-33370.73,22.89,-4.54,3.47
2025-04-29 17:22:01.211,264.50,-42.79,23.1,-33383.71,22.89,-4.19,3.49
2025-04-29 17:22:01.768,265.06,-46.17,15.36,-33400.31,22.88,-3.83,3.48
2025-04-29 17:22:02.323,265.61,-51.14,15.3,-33418.9,22.91,-3.82,3.47
2025-04-29 17:22:02.884,266.17,-50.08,23.52,-33453.13,22.96,-3.87,3.47
2025-04-29 17:22:03.444,266.73,-50.09,19.3,-33477.99,23.01,-3.88,3.44
2025-04-29 17:22:04.004,267.29,-55.06,17.54,-33508.46,23.04,-3.86,3.46
2025-04-29 17:22:04.567,267.86,-53.45,23.41,-33533.16,23.04,-3.52,3.47
2025-04-29 17:22:05.127,268.42,-58.63,13.92,-33575.79,23.03,-3.22,3.48
2025-04-29 17:22:05.654,268.94,-60.37,12.49,-33601.52,23.02,-2.93,3.44
2025-04-29 17:22:06.163,269.45,-61.38,13.09,-33625.61,23.01,-2.68,3.48
2025-04-29 17:22:06.724,270.01,-57.84,17.38,-33645.34,23.02,-2.4,3.48
2025-04-29 17:22:07.283,270.57,-52.93,21.95,-33665.59,23.03,-2.17,3.47
2025-04-29 17:22:07.845,271.13,-49.88,22.45,-33686.35,23.02,-1.96,3.47
2025-04-29 17:22:08.404,271.69,-42.02,18.8,-33715.62,23.02,-1.72,3.47
2025-04-29 17:22:08.967,272.26,-41.03,23.02,-33734.65,23.05,-1.73,3.45
2025-04-29 17:22:09.530,272.82,-38.81,7.38,-33759.71,23.08,-1.61,3.47
2025-04-29 17:22:10.081,273.37,-36.08,16.59,-33783.8,23.1,-1.5,3.47
2025-04-29 17:22:10.641,273.93,-42.72,17.47,-33827.78,23.12,-1.43,3.47
2025-04-29 17:22:11.202,274.49,-41.32,21.07,-33854.88,23.13,-1.43,3.46
2025-04-29 17:22:11.762,275.05,-43.77,18.54,-33879.38,23.12,-1.33,3.47
2025-04-29 17:22:12.320,275.61,-37.91,20.27,-33901.49,23.11,-1.17,3.47
2025-04-29 17:22:12.882,276.17,-36.08,15.01,-33930.0,23.11,-1.07,3.47
2025-04-29 17:22:13.441,276.73,-35.1,11.09,-33949.48,23.12,-0.98,3.47
2025-04-29 17:22:14.007,277.30,-34.17,6.94,-33970.18,23.14,-0.94,3.49
2025-04-29 17:22:14.565,277.85,-35.08,-0.27,-33991.79,23.13,-0.81,3.47
2025-04-29 17:22:15.126,278.41,-35.24,-2.68,-34012.22,23.14,-0.74,3.48
2025-04-29 17:22:15.733,279.02,-41.27,-12.61,-34047.65,23.13,-0.65,3.49
2025-04-29 17:22:16.246,279.53,-42.37,-18.09,-34072.04,23.14,-0.56,3.48
2025-04-29 17:22:16.801,280.09,-40.4,-19.93,-34097.49,23.14,-0.47,3.47
2025-04-29 17:22:17.370,280.66,-36.93,-23.24,-34116.12,23.15,-0.38,3.47
2025-04-29 17:22:17.921,281.21,-36.57,-26.92,-34157.12,23.16,-0.32,3.47
2025-04-29 17:22:18.479,281.77,-40.65,-25.83,-34174.49,23.15,-0.25,3.47
2025-04-29 17:22:19.039,282.33,-46.48,-25.86,-34196.62,23.15,-0.23,3.42
2025-04-29 17:22:19.602,282.89,-41.84,18.97,-34203.5,23.18,-0.18,3.45
2025-04-29 17:22:20.158,283.45,-41.09,4.16,-34227.49,23.16,-0.15,3.48
2025-04-29 17:22:20.717,284.01,-46.17,-6.77,-34253.67,23.16,-0.15,3.47
2025-04-29 17:22:21.279,284.57,-30.9,-9.12,-34286.04,23.16,-0.09,3.48
2025-04-29 17:22:21.843,285.13,-19.77,-7.52,-34307.96,23.16,0.0,3.48
2025-04-29 17:22:22.406,285.70,-8.66,7.77,-34348.5,23.17,0.04,3.47
2025-04-29 17:22:22.914,286.20,-12.96,11.11,-34378.69,23.17,0.09,3.47
2025-04-29 17:22:23.484,286.77,-10.63,22.74,-34405.18,23.17,0.12,3.45
2025-04-29 17:22:24.039,287.33,-16.86,15.53,-34429.89,23.17,0.16,3.44
2025-04-29 17:22:24.597,287.89,-18.93,11.26,-34454.74,23.17,0.16,3.47
2025-04-29 17:22:25.153,288.44,-37.8,17.62,-34484.88,23.18,0.17,3.49
2025-04-29 17:22:25.715,289.00,-61.65,24.73,-34508.09,23.19,0.1,3.44
2025-04-29 17:22:26.274,289.56,-47.5,26.61,-34538.61,23.21,0.08,3.47
2025-04-29 17:22:26.837,290.13,-37.43,-22.28,-34569.48,23.21,0.04,3.47
2025-04-29 17:22:27.394,290.68,-26.89,-19.63,-34585.65,23.22,0.08,3.48
2025-04-29 17:22:27.951,291.24,-56.08,6.17,-34604.39,23.21,0.08,3.46
2025-04-29 17:22:28.511,291.80,-80.93,1.67,-34635.45,23.22,0.08,3.47
2025-04-29 17:22:29.073,292.36,-62.53,17.29,-34649.63,23.24,0.05,3.49
2025-04-29 17:22:29.631,292.92,-48.0,-3.45,-34681.6,23.27,0.06,3.47
2025-04-29 17:22:30.191,293.48,-33.11,-0.28,-34716.75,23.27,0.1,3.47
2025-04-29 17:22:30.750,294.04,-58.89,-0.64,-34751.24,23.27,0.09,3.47
2025-04-29 17:22:31.314,294.60,-55.78,4.94,-34757.04,23.26,0.0,3.47
2025-04-29 17:22:31.878,295.17,-50.75,6.0,-34778.65,23.27,-0.04,3.47
2025-04-29 17:22:32.440,295.73,-53.08,9.27,-34817.9,23.26,-0.06,3.47
2025-04-29 17:22:32.996,296.28,-44.03,8.18,-34842.09,23.26,-0.11,3.48
2025-04-29 17:22:33.534,296.82,-26.34,24.0,-34873.12,23.25,-0.16,3.47
2025-04-29 17:22:34.111,297.40,-23.54,32.63,-34910.13,23.28,-0.21,3.43
2025-04-29 17:22:34.674,297.96,-23.24,25.05,-34948.23,23.35,-0.2,3.47
2025-04-29 17:22:35.234,298.52,-25.7,19.61,-34972.19,23.39,-0.21,3.48
2025-04-29 17:22:35.801,299.09,-26.0,18.62,-34994.02,23.43,-0.24,3.43
2025-04-29 17:22:36.356,299.64,-27.11,12.88,-35013.02,23.46,-0.2,3.47
2025-04-29 17:22:36.915,300.20,-24.63,12.15,-35032.69,23.49,-0.18,3.51
2025-04-29 17:22:37.473,300.76,-28.24,9.31,-35075.94,23.51,-0.16,3.47
2025-04-29 17:22:38.039,301.33,-29.69,13.6,-35100.7,23.53,-0.16,3.49
2025-04-29 17:22:38.596,301.89,-34.99,16.1,-35118.71,23.55,-0.13,3.47
2025-04-29 17:22:39.153,302.44,-26.13,1.78,-35153.05,23.58,-0.11,3.48
2025-04-29 17:22:39.710,303.00,-26.48,1.95,-35185.92,23.57,-0.07,3.47
2025-04-29 17:22:40.281,303.57,-27.17,3.5,-35204.87,23.58,-0.03,3.43
2025-04-29 17:22:40.830,304.12,-26.27,8.65,-35231.98,23.59,-0.02,3.47
2025-04-29 17:22:41.390,304.68,-28.21,13.22,-35258.29,23.61,-0.03,3.47
2025-04-29 17:22:41.951,305.24,-14.37,1.07,-35298.66,23.62,0.01,3.47
2025-04-29 17:22:42.515,305.80,-15.71,-1.0,-35331.92,23.64,0.08,3.5
2025-04-29 17:22:43.067,306.36,-44.52,-0.57,-35371.94,23.67,-0.13,3.49
2025-04-29 17:22:43.626,306.92,-57.28,20.78,-35394.83,23.72,-1.05,3.47
2025-04-29 17:22:44.191,307.48,-37.29,-37.02,-35386.17,23.78,-1.11,3.5
2025-04-29 17:22:44.757,308.05,0.36,-6.37,-35387.6,23.76,-0.87,3.47
2025-04-29 17:22:45.326,308.61,29.99,33.82,-35418.15,23.75,-0.62,3.47
2025-04-29 17:22:45.888,309.18,50.44,14.85,-35443.65,23.74,-0.38,3.47
2025-04-29 17:22:46.411,309.70,50.89,26.73,-35472.7,23.73,-0.17,3.44
2025-04-29 17:22:46.983,310.27,56.7,2.21,-35493.51,23.72,0.07,3.47
2025-04-29 17:22:47.530,310.82,65.58,1.78,-35513.47,23.7,0.28,3.47
2025-04-29 17:22:48.098,311.39,55.11,-17.01,-35516.92,23.68,0.52,3.47
2025-04-29 17:22:48.621,311.91,36.99,-44.22,-35531.22,23.67,0.69,3.47
2025-04-29 17:22:49.173,312.46,46.62,-19.6,-35564.17,23.66,0.92,3.48
2025-04-29 17:22:49.755,313.04,50.93,-14.86,-35609.05,23.64,1.04,3.47
2025-04-29 17:22:50.347,313.64,54.28,-16.56,-35634.66,23.63,1.24,3.47
2025-04-29 17:22:50.886,314.17,40.64,-0.04,-35674.14,23.61,1.37,3.44
2025-04-29 17:22:51.447,314.74,50.68,13.01,-35713.58,23.58,1.49,3.44
2025-04-29 17:22:52.054,315.34,58.63,-9.98,-35724.04,23.57,1.65,3.45
2025-04-29 17:22:52.627,315.92,51.27,-15.69,-35735.88,23.55,1.75,3.43
2025-04-29 17:22:53.134,316.42,38.79,-43.78,-35740.05,23.53,1.8,3.47
2025-04-29 17:22:53.685,316.97,39.6,-27.79,-35767.73,23.52,1.86,3.47
2025-04-29 17:22:54.255,317.54,50.47,-2.79,-35824.74,23.49,2.01,3.47
2025-04-29 17:22:54.864,318.15,66.53,9.14,-35866.19,23.48,2.17,3.42
2025-04-29 17:22:55.453,318.74,53.5,-6.24,-35888.47,23.45,2.22,3.43
2025-04-29 17:22:55.969,319.26,45.99,-21.24,-35905.12,23.43,2.32,3.47
2025-04-29 17:22:56.521,319.81,26.1,-10.22,-35929.95,23.43,2.4,3.42
2025-04-29 17:22:57.075,320.36,25.62,6.77,-35961.88,23.43,2.43,3.47
2025-04-29 17:22:57.628,320.92,4.28,6.4,-35991.58,23.41,2.42,3.47
2025-04-29 17:22:58.178,321.47,-7.29,10.78,-36019.72,23.41,2.39,3.47
2025-04-29 17:22:58.740,322.03,-20.54,23.87,-36058.94,23.4,2.33,3.47
2025-04-29 17:22:59.297,322.59,-21.99,30.03,-36092.69,23.4,2.2,3.48
2025-04-29 17:22:59.859,323.15,-52.74,-11.09,-36128.8,23.39,2.04,3.47
2025-04-29 17:23:00.417,323.71,-73.63,-6.59,-36154.44,23.38,1.94,3.47
2025-04-29 17:23:00.977,324.27,-73.23,-8.49,-36187.27,23.4,1.84,3.47
2025-04-29 17:23:01.539,324.83,-76.34,6.0,-36198.24,23.43,1.78,3.45
2025-04-29 17:23:02.096,325.38,-76.74,0.41,-36231.37,23.46,1.57,3.47
2025-04-29 17:23:02.657,325.95,-78.54,-5.05,-36263.95,23.5,1.34,3.47
2025-04-29 17:23:03.215,326.50,-80.4,-2.5,-36277.66,23.52,0.9,3.48
2025-04-29 17:23:03.778,327.07,-75.62,17.72,-36307.34,23.59,0.69,3.47
2025-04-29 17:23:04.341,327.63,-44.67,5.34,-36327.67,23.65,0.57,3.48
2025-04-29 17:23:04.909,328.20,-3.81,11.66,-36349.89,23.68,0.68,3.47
2025-04-29 17:23:05.474,328.76,-22.68,14.63,-36351.0,23.67,0.74,3.47
2025-04-29 17:23:06.017,329.31,-25.95,25.58,-36370.59,23.67,0.82,3.47
2025-04-29 17:23:06.576,329.86,-33.67,30.02,-36409.48,23.65,0.77,3.47
2025-04-29 17:23:07.152,330.44,-49.42,-1.92,-36461.7,23.65,0.66,3.45
2025-04-29 17:23:07.698,330.99,-60.41,7.2,-36466.77,23.66,0.65,3.47
2025-04-29 17:23:08.256,331.55,-29.85,20.49,-36477.26,23.62,0.64,3.46
2025-04-29 17:23:08.821,332.11,-18.66,19.57,-36504.95,23.61,0.67,3.47
2025-04-29 17:23:09.386,332.68,26.02,-13.21,-36550.45,23.59,0.74,3.46
2025-04-29 17:23:09.945,333.23,-6.53,45.76,-36574.53,23.58,0.8,3.47
2025-04-29 17:23:10.498,333.79,-29.79,57.64,-36614.38,23.57,0.8,3.54
2025-04-29 17:23:11.054,334.34,-65.48,37.05,-36666.88,23.59,0.83,3.47
2025-04-29 17:23:11.613,334.90,-32.66,13.91,-36700.9,23.61,0.72,3.47
2025-04-29 17:23:12.191,335.48,-18.23,-13.54,-36728.27,23.62,0.72,3.47
2025-04-29 17:23:12.748,336.04,28.87,11.13,-36767.77,23.61,0.79,3.44
2025-04-29 17:23:13.263,336.55,25.43,11.5,-36805.81,23.61,0.84,3.47
2025-04-29 17:23:13.874,337.16,21.12,18.23,-36833.91,23.61,0.92,3.47
2025-04-29 17:23:14.385,337.67,17.94,15.18,-36867.65,23.62,0.97,3.43
2025-04-29 17:23:14.935,338.22,20.38,8.96,-36893.27,23.63,0.98,3.47
2025-04-29 17:23:15.494,338.78,-52.37,13.21,-36939.36,23.63,0.9,3.47
2025-04-29 17:23:16.051,339.34,-50.06,-4.16,-36958.09,23.65,0.87,3.43
2025-04-29 17:23:16.619,339.91,-28.51,6.8,-36964.19,23.66,0.87,3.41
2025-04-29 17:23:17.176,340.46,-36.1,29.72,-36985.5,23.67,0.74,3.47
2025-04-29 17:23:17.740,341.03,-134.34,28.78,-37009.59,23.7,0.74,3.47
2025-04-29 17:23:18.302,341.59,-137.59,23.42,-37038.42,23.74,0.34,3.48
2025-04-29 17:23:18.853,342.14,-135.94,22.7,-37069.1,23.78,-0.14,3.47
2025-04-29 17:23:19.412,342.70,-109.92,17.97,-37099.64,23.82,-0.23,3.43
2025-04-29 17:23:19.973,343.26,-96.62,6.42,-37122.03,23.84,-0.23,3.46
2025-04-29 17:23:20.535,343.82,-109.14,21.5,-37148.81,23.87,-0.13,3.47
2025-04-29 17:23:21.095,344.38,-108.21,20.18,-37176.25,23.87,-0.06,3.47
2025-04-29 17:23:21.656,344.94,-101.18,12.43,-37205.61,23.86,-0.03,3.46
2025-04-29 17:23:22.213,345.50,-102.43,15.02,-37232.34,23.85,-0.03,3.48
2025-04-29 17:23:22.776,346.06,-103.12,17.71,-37262.93,23.86,-0.03,3.47
2025-04-29 17:23:23.329,346.62,-113.03,26.17,-37285.35,23.89,-0.1,3.47
2025-04-29 17:23:23.870,347.16,-104.07,16.71,-37310.14,23.92,-0.17,3.47
2025-04-29 17:23:24.448,347.74,-64.54,36.25,-37319.18,23.92,-0.17,3.47
2025-04-29 17:23:25.013,348.30,-121.6,39.47,-37351.52,23.9,-0.01,3.47
2025-04-29 17:23:25.570,348.86,-116.91,31.34,-37378.08,23.9,0.08,3.46
2025-04-29 17:23:26.130,349.42,-116.07,30.43,-37402.11,23.89,0.15,3.47
2025-04-29 17:23:26.688,349.98,-114.66,30.66,-37426.41,23.88,0.15,3.47
2025-04-29 17:23:27.246,350.53,-114.32,27.67,-37454.23,23.87,0.23,3.47
2025-04-29 17:23:27.812,351.10,-111.49,21.76,-37497.98,23.85,0.37,3.47
2025-04-29 17:23:28.367,351.66,-124.29,35.34,-37520.81,23.84,0.33,3.48
2025-04-29 17:23:28.962,352.25,-117.63,27.55,-37548.84,23.84,0.33,3.47
2025-04-29 17:23:29.488,352.78,-116.57,25.76,-37571.6,23.83,0.31,3.46
2025-04-29 17:23:30.060,353.35,-117.66,27.56,-37604.68,23.83,0.28,3.47
2025-04-29 17:23:30.607,353.90,-118.52,29.47,-37627.86,23.84,0.28,3.47
2025-04-29 17:23:31.166,354.45,-121.1,32.49,-37649.54,23.84,0.25,3.46
2025-04-29 17:23:31.723,355.01,-119.07,32.66,-37672.02,23.85,0.25,3.47
2025-04-29 17:23:32.292,355.58,-121.37,35.06,-37710.61,23.89,0.02,3.5
2025-04-29 17:23:32.851,356.14,-119.25,34.32,-37735.19,23.93,-0.21,3.46
2025-04-29 17:23:33.407,356.70,-124.26,37.63,-37757.45,23.99,-17.07,3.47
2025-04-29 17:23:33.967,357.26,-127.4,40.85,-37779.48,24.02,-17.07,3.46
2025-04-29 17:23:34.528,357.82,-125.64,39.25,-37814.27,24.05,-15.38,3.44
2025-04-29 17:23:35.099,358.39,-123.85,37.24,-37838.79,24.1,-23.93,3.46
2025-04-29 17:23:35.644,358.93,-125.51,39.16,-37863.0,24.14,-27.77,3.42
2025-04-29 17:23:36.206,359.49,-120.17,33.93,-37889.68,24.18,-27.77,3.46
2025-04-29 17:23:36.766,360.06,-121.17,34.87,-37913.1,24.22,-26.37,3.46
2025-04-29 17:23:37.325,360.61,-121.43,35.06,-37949.3,24.26,-22.4,3.47
2025-04-29 17:23:37.891,361.18,-122.88,36.37,-37974.13,24.28,-21.14,3.47
2025-04-29 17:23:38.442,361.73,-120.6,33.84,-37998.02,24.31,-21.14,3.46
2025-04-29 17:23:39.007,362.30,-127.13,40.81,-38015.64,24.33,-20.15,3.46
2025-04-29 17:23:39.564,362.85,-127.28,40.5,-38052.93,24.42,-23.25,3.47
2025-04-29 17:23:40.123,363.41,-125.16,38.63,-38079.97,24.46,-28.47,3.47
2025-04-29 17:23:40.686,363.97,-118.77,33.47,-38106.27,24.48,-28.47,3.44
2025-04-29 17:23:41.242,364.53,-120.1,33.19,-38129.54,24.52,-26.99,3.46
2025-04-29 17:23:41.807,365.10,-131.86,44.3,-38154.63,24.6,-42.02,3.47
2025-04-29 17:23:42.367,365.66,-145.97,58.35,-38166.15,24.63,-56.12,3.46
2025-04-29 17:23:42.924,366.21,-158.52,71.18,-38187.95,24.66,-56.12,3.46
2025-04-29 17:23:43.492,366.78,-142.72,57.17,-38216.93,24.71,-55.89,3.52
2025-04-29 17:23:44.054,367.34,-73.96,67.52,-38254.2,24.8,-53.22,3.46
2025-04-29 17:23:44.599,367.89,-97.9,38.03,-38296.06,24.79,-49.9,3.47
2025-04-29 17:23:45.159,368.45,-47.46,42.23,-38316.84,24.78,-46.8,3.46
2025-04-29 17:23:45.721,369.01,-44.31,40.91,-38338.64,24.75,-46.8,3.46
2025-04-29 17:23:46.279,369.57,-56.32,47.95,-38363.97,24.73,-43.87,3.47
2025-04-29 17:23:46.842,370.13,-71.11,48.79,-38401.89,24.71,-38.81,3.46
2025-04-29 17:23:47.402,370.69,-45.23,41.25,-38425.21,24.69,-36.53,3.47
2025-04-29 17:23:47.961,371.25,-40.47,44.38,-38448.54,24.68,-36.53,3.46
2025-04-29 17:23:48.523,371.81,-38.71,47.2,-38470.11,24.67,-34.37,3.46
2025-04-29 17:23:49.084,372.37,-37.44,52.93,-38504.68,24.67,-30.17,3.46
2025-04-29 17:23:49.641,372.93,-44.48,38.68,-38528.33,24.67,-28.39,3.46
2025-04-29 17:23:50.203,373.49,-39.76,44.8,-38558.55,24.67,-28.39,3.41
2025-04-29 17:23:50.759,374.05,-36.66,47.64,-38582.56,24.64,-26.67,3.46
2025-04-29 17:23:51.321,374.61,-50.75,33.54,-38619.19,24.6,-23.47,3.46
2025-04-29 17:23:51.878,375.17,-35.86,48.42,-38637.7,24.6,-21.89,3.45
2025-04-29 17:23:52.439,375.73,-35.43,49.72,-38664.91,24.59,-21.89,3.48
2025-04-29 17:23:52.997,376.29,-41.09,42.42,-38692.3,24.58,-20.41,3.44
2025-04-29 17:23:53.562,376.85,-42.19,43.39,-38730.28,24.58,-17.64,3.47
2025-04-29 17:23:54.115,377.40,-113.8,43.75,-38766.87,24.56,-16.5,3.45
2025-04-29 17:23:54.673,377.96,-61.42,12.29,-38781.38,24.56,-16.5,3.46
2025-04-29 17:23:55.242,378.53,-28.88,34.77,-38771.03,24.56,-15.66,3.47
2025-04-29 17:23:55.797,379.09,-11.07,28.56,-38779.16,24.54,-14.68,3.46
2025-04-29 17:23:56.365,379.65,-10.33,35.68,-38793.47,24.49,-12.66,3.46
2025-04-29 17:23:56.921,380.21,-18.69,55.46,-38815.16,24.46,-11.83,3.46
2025-04-29 17:23:57.485,380.77,-13.99,42.27,-38852.95,24.45,-11.83,3.47
2025-04-29 17:23:58.066,381.35,-11.71,22.81,-38893.68,24.43,-11.05,3.46
2025-04-29 17:23:58.574,381.86,-1.38,13.53,-38944.66,24.41,-9.57,3.47
2025-04-29 17:23:59.132,382.42,-14.3,-19.44,-38971.83,24.38,-8.97,3.47
2025-04-29 17:23:59.685,382.97,-14.54,-19.89,-38994.86,24.37,-8.97,3.46
2025-04-29 17:24:00.304,383.59,11.59,-25.57,-39005.66,24.36,-8.4,3.46
2025-04-29 17:24:00.852,384.14,35.45,2.22,-39025.14,24.35,-7.23,3.46
2025-04-29 17:24:01.411,384.70,45.94,-15.1,-39045.54,24.35,-6.72,3.42
2025-04-29 17:24:01.982,385.27,64.54,-17.17,-39074.69,24.35,-6.72,3.45
2025-04-29 17:24:02.541,385.83,66.11,-20.45,-39089.49,24.37,-6.18,3.49
2025-04-29 17:24:03.043,386.33,60.24,-29.25,-39105.1,24.39,-5.77,3.46
2025-04-29 17:24:03.597,386.89,19.8,-59.84,-39103.62,24.4,-4.95,3.47
2025-04-29 17:24:04.162,387.45,5.5,-67.79,-39116.68,24.38,-4.95,3.45
2025-04-29 17:24:04.711,388.00,-6.85,-53.89,-39141.79,24.35,-4.52,3.44
2025-04-29 17:24:05.269,388.56,5.46,-55.93,-39177.73,24.33,-4.12,3.44
2025-04-29 17:24:05.830,389.12,23.5,-42.43,-39230.13,24.3,-3.36,3.47
2025-04-29 17:24:06.395,389.68,17.39,-46.85,-39247.19,24.29,-3.36,3.45
2025-04-29 17:24:06.948,390.24,17.13,-49.02,-39270.02,24.29,-3.02,3.45
2025-04-29 17:24:07.509,390.80,18.51,-50.04,-39292.71,24.28,-2.73,3.47
2025-04-29 17:24:08.072,391.36,22.19,-36.16,-39328.75,24.28,-2.4,3.45
2025-04-29 17:24:08.629,391.92,28.07,-30.34,-39369.41,24.28,-2.13,3.47
2025-04-29 17:24:09.194,392.48,20.03,-33.68,-39384.75,24.3,-1.88,3.46
2025-04-29 17:24:09.762,393.05,14.57,-43.03,-39396.68,24.29,-1.63,3.46
2025-04-29 17:24:10.315,393.60,12.48,-47.36,-39412.09,24.31,-1.41,3.46
2025-04-29 17:24:10.872,394.16,16.85,-48.86,-39450.81,24.3,-0.93,3.46
2025-04-29 17:24:11.401,394.69,19.1,-48.9,-39476.31,24.32,-0.93,3.46
2025-04-29 17:24:11.925,395.21,20.23,-49.12,-39501.75,24.33,-0.75,3.45
2025-04-29 17:24:12.478,395.77,17.38,-46.87,-39527.96,24.34,-0.54,3.47
2025-04-29 17:24:13.037,396.33,21.44,-48.29,-39552.68,24.35,-0.36,3.46
2025-04-29 17:24:13.594,396.88,16.83,-47.61,-39572.31,24.33,-0.15,3.46
2025-04-29 17:24:14.159,397.45,22.42,-44.67,-39619.34,24.33,-0.02,3.46
2025-04-29 17:24:14.710,398.00,27.37,-40.31,-39646.08,24.32,0.09,3.46
2025-04-29 17:24:15.272,398.56,13.6,-42.85,-39674.69,24.31,0.24,3.46
2025-04-29 17:24:15.833,399.12,10.45,-37.31,-39695.98,24.3,0.34,3.45
2025-04-29 17:24:16.404,399.69,26.41,-65.89,-39741.23,24.29,0.49,3.42
2025-04-29 17:24:16.966,400.25,150.14,-56.72,-39764.04,24.29,0.58,3.47
2025-04-29 17:24:17.485,400.77,162.48,-53.03,-39797.05,24.3,0.64,3.46
2025-04-29 17:24:18.042,401.33,156.37,-42.99,-39839.01,24.31,0.81,3.46
2025-04-29 17:24:18.597,401.89,155.13,-28.43,-39875.14,24.31,0.81,3.46
2025-04-29 17:24:19.177,402.47,163.6,-26.18,-39903.5,24.32,0.95,3.48
2025-04-29 17:24:19.720,403.01,166.07,-29.39,-39930.96,24.33,1.07,3.46
2025-04-29 17:24:20.244,403.53,167.25,-29.96,-39956.94,24.34,1.21,3.46
2025-04-29 17:24:20.802,404.09,169.26,-30.92,-39977.71,24.34,1.29,3.46
2025-04-29 17:24:21.348,404.64,170.58,-31.51,-40000.94,24.34,1.39,3.42
2025-04-29 17:24:21.936,405.22,168.55,-30.61,-40038.95,24.35,1.5,3.45
2025-04-29 17:24:22.491,405.78,174.59,-28.78,-40063.7,24.35,1.59,3.46
2025-04-29 17:24:23.047,406.34,166.32,-35.98,-40095.55,24.35,1.66,3.45
2025-04-29 17:24:23.669,406.96,166.34,-34.58,-40132.51,24.38,1.73,3.44
2025-04-29 17:24:24.263,407.55,168.44,-35.39,-40153.51,24.38,1.76,3.42
2025-04-29 17:24:24.832,408.12,169.41,-35.13,-40175.72,24.38,1.85,3.46
2025-04-29 17:24:55.303,438.59,166.36,-35.19,-40211.67,24.39,1.9,3.45
