Timestamp,Runtime (s),Pitch,Roll,Yaw,Temp,Alt,Battery
2025-04-29 17:46:28.283,0.57,-11.28,0.81,603.24,23.02,-0.95,3.35
2025-04-29 17:46:28.851,1.14,-9.41,0.87,609.35,23.02,-0.96,3.34
2025-04-29 17:46:29.392,1.68,-11.48,1.34,620.08,23.01,-0.96,3.34
2025-04-29 17:46:29.951,2.24,-9.74,0.79,627.09,23.01,-0.98,3.35
2025-04-29 17:46:30.521,2.81,-7.29,1.09,632.33,23.01,-0.96,3.36
2025-04-29 17:46:31.071,3.36,-13.69,1.17,640.69,23.0,-0.94,3.34
2025-04-29 17:46:31.634,3.92,-8.75,0.99,649.17,22.99,-0.96,3.35
2025-04-29 17:46:32.193,4.48,-7.63,0.88,655.9,23.0,-0.93,3.38
2025-04-29 17:46:32.751,5.04,-8.52,0.97,662.53,22.98,-0.92,3.34
2025-04-29 17:46:33.314,5.60,-7.6,1.38,669.62,22.97,-0.93,3.34
2025-04-29 17:46:33.877,6.16,-11.34,1.54,678.15,22.98,-0.93,3.29
2025-04-29 17:46:34.432,6.72,-7.96,1.19,683.32,22.98,-0.94,3.34
2025-04-29 17:46:34.989,7.28,-8.64,1.08,691.42,22.96,-0.93,3.34
2025-04-29 17:46:35.555,7.84,-7.77,1.03,697.55,22.95,-0.93,3.35
2025-04-29 17:46:36.162,8.45,-10.16,1.4,707.29,22.95,-0.91,3.34
2025-04-29 17:46:36.671,8.96,-10.0,0.95,714.23,22.96,-0.91,3.35
2025-04-29 17:46:37.228,9.51,-16.8,1.31,721.2,22.96,-0.9,3.34
2025-04-29 17:46:37.744,10.03,-11.75,1.28,727.59,22.97,-0.9,3.34
2025-04-29 17:46:38.270,10.56,-12.07,1.22,734.03,22.98,-0.9,3.34
2025-04-29 17:46:38.829,11.12,-11.42,1.24,740.55,22.98,-0.9,3.35
2025-04-29 17:46:39.390,11.68,-11.94,1.31,750.67,23.0,-0.91,3.33
2025-04-29 17:46:39.948,12.23,-11.47,1.25,756.82,23.01,-0.93,3.33
2025-04-29 17:46:40.567,12.85,-10.2,1.33,763.23,23.0,-0.95,3.35
2025-04-29 17:46:41.068,13.35,-9.41,1.03,769.57,23.0,-0.95,3.34
2025-04-29 17:46:41.625,13.91,-9.1,1.05,776.15,22.99,-0.95,3.34
2025-04-29 17:46:42.190,14.48,-10.16,1.06,785.45,22.97,-0.96,3.34
2025-04-29 17:46:42.792,15.08,-9.59,0.99,791.69,22.98,-0.96,3.34
2025-04-29 17:46:43.307,15.59,-10.01,1.02,797.79,22.98,-0.96,3.36
2025-04-29 17:46:43.878,16.16,-9.57,1.01,804.28,22.99,-0.95,3.34
2025-04-29 17:46:44.427,16.71,-11.38,1.1,813.81,22.99,-0.95,3.35
2025-04-29 17:46:44.985,17.27,-9.78,1.18,820.35,22.99,-0.97,3.34
2025-04-29 17:46:45.550,17.84,-10.8,1.07,827.01,22.99,-0.97,3.35
2025-04-29 17:46:46.116,18.40,-10.2,1.11,833.63,23.0,-0.97,3.34
2025-04-29 17:46:46.675,18.96,-9.63,1.02,842.94,22.99,-0.95,3.34
2025-04-29 17:46:47.226,19.51,-12.67,1.12,849.63,22.99,-0.96,3.34
2025-04-29 17:46:47.786,20.07,-10.41,1.18,856.52,23.0,-0.96,3.34
2025-04-29 17:46:48.349,20.64,-11.17,1.06,863.2,22.99,-0.98,3.35
2025-04-29 17:46:48.908,21.19,-13.24,1.28,873.42,23.01,-0.96,3.31
2025-04-29 17:46:49.462,21.75,-12.13,1.24,879.84,23.01,-0.97,3.35
2025-04-29 17:46:50.024,22.31,-13.09,1.28,886.29,23.01,-0.97,3.34
2025-04-29 17:46:50.582,22.87,-13.55,1.26,892.82,23.02,-0.96,3.34
2025-04-29 17:46:51.147,23.43,-14.31,1.2,899.23,23.02,-0.94,3.3
2025-04-29 17:46:51.709,24.00,-12.75,1.23,908.84,23.03,-0.93,3.34
2025-04-29 17:46:52.262,24.55,-13.38,1.16,915.33,23.04,-0.93,3.34
2025-04-29 17:46:52.827,25.11,-13.03,1.09,921.79,23.05,-0.98,3.34
2025-04-29 17:46:53.380,25.67,-13.3,1.2,928.4,23.05,-0.96,3.34
2025-04-29 17:46:53.941,26.23,-13.18,1.18,938.02,23.07,-0.98,3.33
2025-04-29 17:46:54.475,26.76,-11.72,1.19,944.4,23.07,-0.98,3.31
2025-04-29 17:46:54.982,27.27,-11.83,1.11,950.95,23.07,-0.95,3.34
2025-04-29 17:46:55.541,27.83,-12.35,1.08,957.31,23.09,-0.96,3.34
2025-04-29 17:46:56.101,28.39,-11.77,1.1,963.7,23.11,-0.98,3.34
2025-04-29 17:46:56.662,28.95,-12.73,1.06,970.32,23.12,-0.89,3.34
2025-04-29 17:46:57.219,29.51,-12.6,1.15,980.41,23.12,-0.91,3.34
2025-04-29 17:46:57.778,30.07,-12.26,1.21,986.85,23.12,-0.82,3.3
2025-04-29 17:46:58.340,30.63,-11.44,1.17,993.19,23.11,-0.86,3.34
2025-04-29 17:46:58.903,31.19,-10.83,1.08,999.49,23.11,-0.85,3.33
2025-04-29 17:46:59.460,31.75,-10.76,0.82,1008.81,23.13,-0.88,3.34
2025-04-29 17:47:00.020,32.31,-10.5,0.97,1015.46,23.13,-0.88,3.34
2025-04-29 17:47:00.581,32.87,-11.02,1.0,1022.07,23.12,-0.89,3.34
2025-04-29 17:47:01.137,33.42,-12.37,1.15,1028.73,23.13,-0.9,3.34
2025-04-29 17:47:01.697,33.98,-11.99,1.08,1038.66,23.13,-0.9,3.32
2025-04-29 17:47:02.257,34.54,-12.28,1.03,1045.2,23.12,-0.91,3.35
2025-04-29 17:47:02.821,35.11,-11.47,1.06,1051.75,23.12,-0.93,3.33
2025-04-29 17:47:03.379,35.67,-12.56,1.03,1058.34,23.13,-0.98,3.34
2025-04-29 17:47:03.940,36.23,-10.2,0.88,1067.7,23.13,-1.01,3.34
2025-04-29 17:47:04.499,36.79,-11.26,0.88,1074.3,23.12,-1.05,3.34
2025-04-29 17:47:05.056,37.34,-11.48,0.96,1080.84,23.12,-1.09,3.33
2025-04-29 17:47:05.616,37.90,-12.75,1.12,1087.42,23.1,-1.1,3.34
2025-04-29 17:47:06.176,38.46,-10.31,0.97,1093.63,23.1,-1.12,3.35
2025-04-29 17:47:06.739,39.03,-13.53,1.13,1104.06,23.09,-1.1,3.38
2025-04-29 17:47:07.299,39.59,-9.18,1.15,1108.89,23.06,-1.12,3.35
2025-04-29 17:47:07.855,40.14,-13.55,1.0,1116.05,23.07,-1.12,3.34
2025-04-29 17:47:08.414,40.70,-12.76,1.15,1122.86,23.06,-1.09,3.33
2025-04-29 17:47:08.980,41.27,-11.51,1.83,1131.21,23.04,-1.11,3.34
2025-04-29 17:47:09.534,41.82,-13.3,0.54,1138.65,23.01,-1.09,3.33
2025-04-29 17:47:10.094,42.38,-14.43,1.39,1145.03,23.0,-1.05,3.33
2025-04-29 17:47:10.655,42.94,-11.41,1.05,1152.3,22.97,-1.0,3.33
2025-04-29 17:47:11.212,43.50,-6.92,0.78,1157.42,22.97,-0.99,3.34
2025-04-29 17:47:11.776,44.06,-18.64,-0.57,1164.99,22.96,-0.93,3.28
2025-04-29 17:47:12.336,44.62,-29.96,-3.65,1169.81,22.96,-0.89,3.33
2025-04-29 17:47:12.896,45.18,-50.31,-4.86,1174.13,22.97,-0.85,3.33
2025-04-29 17:47:13.456,45.74,-66.18,2.84,1190.97,22.99,-0.77,3.34
2025-04-29 17:47:14.011,46.30,-46.18,-3.22,1193.83,22.99,-0.72,3.33
2025-04-29 17:47:14.572,46.86,-39.52,0.82,1199.65,23.0,-0.71,3.33
2025-04-29 17:47:15.129,47.42,-32.81,10.65,1194.3,22.99,-0.66,3.34
2025-04-29 17:47:15.689,47.98,-42.76,9.89,1181.02,23.02,-0.81,3.34
2025-04-29 17:47:16.250,48.54,-51.47,29.14,1175.08,23.07,-1.76,3.32
2025-04-29 17:47:16.812,49.10,-42.72,54.32,1212.5,23.07,-1.78,3.33
2025-04-29 17:47:17.373,49.66,-38.46,50.41,1217.77,23.07,-1.77,3.34
2025-04-29 17:47:17.927,50.21,-57.04,31.0,1205.56,23.06,-1.83,3.32
2025-04-29 17:47:18.491,50.78,-66.86,29.44,1207.79,23.07,-1.91,3.28
2025-04-29 17:47:19.048,51.33,-101.75,20.31,1206.72,23.09,-2.12,3.33
2025-04-29 17:47:19.610,51.90,-82.45,10.53,1199.85,23.13,-2.15,3.33
2025-04-29 17:47:20.170,52.46,-89.05,1.95,1206.66,23.16,-2.2,3.34
2025-04-29 17:47:20.728,53.01,-103.28,13.82,1226.42,23.21,-2.29,3.33
2025-04-29 17:47:21.287,53.57,-90.56,16.03,1234.26,23.24,-2.25,3.33
2025-04-29 17:47:21.850,54.14,-88.69,10.17,1232.48,23.29,-2.36,3.33
2025-04-29 17:47:22.407,54.69,-91.32,3.2,1240.64,23.32,-2.47,3.33
2025-04-29 17:47:22.973,55.26,-93.96,13.27,1253.78,23.38,-2.53,3.33
2025-04-29 17:47:23.526,55.81,-85.86,15.0,1262.57,23.43,-2.48,3.33
2025-04-29 17:47:24.086,56.37,-97.26,13.99,1265.04,23.45,-2.41,3.34
2025-04-29 17:47:24.646,56.93,-90.41,3.84,1264.27,23.49,-2.49,3.33
2025-04-29 17:47:25.210,57.50,-96.2,8.08,1273.59,23.53,-2.56,3.34
2025-04-29 17:47:25.763,58.05,-87.03,11.88,1289.39,23.55,-2.62,3.34
2025-04-29 17:47:26.327,58.61,-103.77,15.35,1297.13,23.59,-2.58,3.34
2025-04-29 17:47:26.883,59.17,-106.77,18.14,1305.45,23.62,-2.54,3.34
2025-04-29 17:47:27.445,59.73,-92.88,15.39,1308.23,23.65,-2.61,3.33
2025-04-29 17:47:28.003,60.29,-102.51,14.98,1318.09,23.7,-2.65,3.33
2025-04-29 17:47:28.568,60.85,-101.71,14.74,1324.36,23.74,-2.66,3.33
2025-04-29 17:47:29.123,61.41,-99.32,15.01,1331.04,23.79,-2.71,3.33
2025-04-29 17:47:29.681,61.97,-104.19,15.18,1337.56,23.83,-2.75,3.33
2025-04-29 17:47:30.244,62.53,-104.1,14.8,1347.11,23.9,-2.77,3.33
2025-04-29 17:47:30.804,63.09,-104.66,15.12,1353.85,23.93,-2.76,3.29
2025-04-29 17:47:31.362,63.65,-104.5,14.77,1360.04,23.96,-2.79,3.34
2025-04-29 17:47:31.923,64.21,-102.96,14.56,1366.33,23.99,-2.84,3.32
2025-04-29 17:47:32.482,64.77,-104.43,14.7,1376.2,24.04,-2.84,3.34
2025-04-29 17:47:33.042,65.33,-104.16,14.89,1382.73,24.09,-2.87,3.33
2025-04-29 17:47:33.602,65.89,-103.68,15.05,1389.48,24.15,-2.88,3.29
2025-04-29 17:47:34.167,66.45,-104.32,14.68,1395.89,24.2,-2.89,3.33
2025-04-29 17:47:34.719,67.01,-104.82,14.86,1402.37,24.23,-2.93,3.32
2025-04-29 17:47:35.280,67.57,-98.27,14.86,1411.98,24.27,-2.93,3.33
2025-04-29 17:47:35.840,68.13,-103.68,14.83,1418.46,24.31,-2.94,3.33
2025-04-29 17:47:36.399,68.69,-104.25,14.81,1424.98,24.33,-2.96,3.33
2025-04-29 17:47:36.959,69.25,-98.61,14.96,1431.45,24.36,-2.99,3.36
2025-04-29 17:47:37.520,69.81,-102.69,14.89,1441.04,24.39,-3.04,3.33
2025-04-29 17:47:38.085,70.37,-82.51,16.18,1448.46,24.41,-3.02,3.33
2025-04-29 17:47:38.638,70.93,-86.43,15.86,1456.45,24.44,-2.9,3.32
2025-04-29 17:47:39.197,71.48,-103.26,15.96,1461.11,24.46,-2.83,3.32
2025-04-29 17:47:39.758,72.04,-90.92,14.51,1470.61,24.49,-2.78,3.33
2025-04-29 17:47:40.317,72.60,-84.35,15.67,1478.4,24.54,-2.67,3.33
2025-04-29 17:47:40.877,73.16,-76.31,16.76,1485.98,24.56,-2.62,3.33
2025-04-29 17:47:41.440,73.73,-80.04,12.64,1489.19,24.56,-2.93,3.32
2025-04-29 17:47:41.997,74.28,-77.08,12.92,1498.82,24.55,-3.1,3.33
2025-04-29 17:47:42.561,74.85,-75.43,15.18,1505.88,24.56,-3.19,3.33
2025-04-29 17:47:43.119,75.41,-82.3,12.22,1511.2,24.57,-3.45,3.33
2025-04-29 17:47:43.675,75.96,-77.91,12.43,1517.49,24.56,-3.68,3.33
2025-04-29 17:47:44.240,76.53,-78.9,12.44,1523.84,24.57,-3.68,3.28
2025-04-29 17:47:44.799,77.09,-73.63,16.17,1536.84,24.61,-3.92,3.33
2025-04-29 17:47:45.357,77.64,-82.59,14.08,1541.05,24.62,-4.26,3.34
2025-04-29 17:47:45.918,78.21,-86.12,16.9,1551.68,24.62,-4.81,3.32
2025-04-29 17:47:46.475,78.76,-74.14,19.6,1560.34,24.62,-4.81,3.32
2025-04-29 17:47:47.034,79.32,-86.81,39.28,1586.98,24.63,-4.49,3.33
2025-04-29 17:47:47.598,79.88,-66.83,8.57,1600.8,24.64,-4.49,3.33
2025-04-29 17:47:48.154,80.44,-48.94,-2.41,1594.43,24.65,-4.51,3.33
2025-04-29 17:47:48.716,81.00,-63.8,27.97,1608.51,24.65,-10.29,3.31
2025-04-29 17:47:49.275,81.56,-31.09,38.21,1641.8,24.68,-27.25,3.32
2025-04-29 17:47:49.838,82.12,-23.47,-21.35,1679.1,24.69,-25.64,3.33
2025-04-29 17:47:50.394,82.68,-8.15,43.48,1666.63,24.71,-24.02,3.34
2025-04-29 17:47:50.969,83.26,-10.63,-10.84,1668.65,24.69,-22.52,3.33
2025-04-29 17:47:51.524,83.81,-7.0,-32.37,1707.58,24.64,-21.12,3.33
2025-04-29 17:47:52.082,84.37,-7.0,-32.37,1707.58,24.64,-21.12,3.33
2025-04-29 17:47:52.639,84.93,5.67,-2.31,1719.46,24.63,-18.55,3.33
2025-04-29 17:47:53.197,85.48,-4.42,18.12,1711.85,24.62,-17.42,3.33
2025-04-29 17:47:53.758,86.04,-8.47,25.78,1721.43,24.62,-17.42,3.33
2025-04-29 17:47:54.316,86.60,-12.24,0.3,1731.78,24.62,-15.32,3.33
2025-04-29 17:47:54.874,87.16,-20.6,5.45,1745.96,24.61,-14.35,3.27
2025-04-29 17:47:55.440,87.73,0.37,-5.4,1756.75,24.59,-13.4,3.34
2025-04-29 17:47:55.995,88.28,-24.99,-1.74,1788.43,24.58,-13.4,3.28
2025-04-29 17:47:56.552,88.84,-68.26,5.18,1797.64,24.49,-11.71,3.33
2025-04-29 17:47:57.114,89.40,-71.63,-0.89,1795.4,24.46,-11.02,3.31
2025-04-29 17:47:57.673,89.96,-75.29,-3.89,1803.5,24.44,-10.35,3.32
2025-04-29 17:47:58.232,90.52,-71.25,0.84,1814.19,24.44,-10.35,3.33
2025-04-29 17:47:58.795,91.08,-56.97,2.49,1826.95,24.43,-9.17,3.32
2025-04-29 17:47:59.354,91.64,-56.53,1.08,1830.91,24.41,-8.63,3.32
2025-04-29 17:47:59.912,92.20,-59.35,1.8,1838.64,24.4,-8.11,3.33
2025-04-29 17:48:00.481,92.77,-50.63,2.18,1846.83,24.4,-8.11,3.34
2025-04-29 17:48:01.031,93.32,-57.59,2.09,1855.56,24.39,-7.22,3.36
2025-04-29 17:48:01.590,93.88,-53.9,0.4,1860.71,24.37,-6.78,3.32
2025-04-29 17:48:02.152,94.44,-46.81,-1.12,1861.26,24.36,-6.35,3.34
2025-04-29 17:48:02.709,95.00,-59.56,-1.62,1868.29,24.34,-6.35,3.34
2025-04-29 17:48:03.273,95.56,-73.58,-3.62,1873.17,24.3,-5.97,3.32
2025-04-29 17:48:03.831,96.12,-66.89,-4.85,1875.17,24.29,-5.33,3.32
2025-04-29 17:48:04.389,96.68,-61.2,-5.98,1883.92,24.28,-5.03,3.33
2025-04-29 17:48:04.949,97.24,-52.15,-6.88,1891.99,24.29,-5.03,3.33
2025-04-29 17:48:05.509,97.80,-51.86,-3.83,1897.74,24.29,-4.68,3.32
2025-04-29 17:48:06.073,98.36,-51.81,4.98,1908.41,24.3,-4.16,3.32
2025-04-29 17:48:06.633,98.92,-64.48,4.83,1919.78,24.3,-3.86,3.35
2025-04-29 17:48:07.188,99.47,-66.58,3.97,1929.17,24.3,-3.86,3.31
2025-04-29 17:48:07.749,100.04,-69.74,3.14,1934.63,24.29,-3.61,3.32
2025-04-29 17:48:08.308,100.59,-70.58,3.72,1945.01,24.29,-3.09,3.32
2025-04-29 17:48:08.867,101.15,-70.49,3.76,1951.59,24.29,-2.86,3.29
2025-04-29 17:48:09.427,101.71,-69.57,4.04,1957.39,24.3,-2.86,3.32
2025-04-29 17:48:09.986,102.27,-72.14,3.73,1963.43,24.31,-2.67,3.32
2025-04-29 17:48:10.547,102.83,-44.44,1.46,1971.19,24.32,-2.32,3.32
2025-04-29 17:48:11.109,103.40,-24.04,2.05,1977.94,24.32,-2.19,3.32
2025-04-29 17:48:11.666,103.95,6.51,3.81,1986.3,24.31,-2.19,3.32
2025-04-29 17:48:12.236,104.52,-10.85,-2.15,1991.46,24.27,-2.05,3.32
2025-04-29 17:48:12.794,105.08,-12.12,-0.81,2000.54,24.23,-1.91,3.28
2025-04-29 17:48:13.345,105.63,-12.36,-0.21,2007.56,24.22,-1.83,3.32
2025-04-29 17:48:13.903,106.19,-12.92,-0.37,2013.64,24.2,-1.83,3.32
2025-04-29 17:48:14.467,106.75,-15.42,-3.12,2018.18,24.19,-1.73,3.33
2025-04-29 17:48:15.036,107.32,-13.28,-1.74,2025.7,24.18,-1.65,3.31
2025-04-29 17:48:15.592,107.88,-14.2,-0.09,2035.6,24.16,-1.53,3.33
2025-04-29 17:48:16.150,108.44,-13.48,0.19,2042.09,24.15,-1.53,3.3
2025-04-29 17:48:16.705,108.99,-13.11,0.04,2048.55,24.13,-1.47,3.32
2025-04-29 17:48:17.268,109.56,-13.51,0.29,2055.03,24.12,-1.45,3.32
2025-04-29 17:48:17.824,110.11,-13.36,0.63,2064.77,24.11,-1.35,3.32
2025-04-29 17:48:18.384,110.67,-12.67,0.2,2071.06,24.1,-1.35,3.32
2025-04-29 17:48:18.945,111.23,-12.58,0.27,2077.63,24.08,-1.32,3.32
2025-04-29 17:48:19.504,111.79,-12.74,0.66,2084.18,24.06,-1.3,3.29
2025-04-29 17:48:20.039,112.33,-12.94,0.52,2090.75,24.04,-1.26,3.32
2025-04-29 17:48:20.541,112.83,-13.01,0.5,2097.25,24.03,-1.22,3.32
2025-04-29 17:48:21.102,113.39,-12.77,0.51,2106.99,24.01,-1.19,3.32
2025-04-29 17:48:21.659,113.95,-12.86,0.54,2113.54,24.0,-1.16,3.32
2025-04-29 17:48:22.221,114.51,-12.7,0.52,2119.97,23.99,-1.11,3.32
2025-04-29 17:48:22.786,115.07,-12.7,0.45,2126.41,23.99,-1.14,3.32
2025-04-29 17:48:23.340,115.63,-13.09,0.64,2136.04,23.97,-1.11,3.32
2025-04-29 17:48:23.904,116.19,-13.02,0.5,2142.54,23.97,-1.1,3.32
2025-04-29 17:48:24.462,116.75,-13.07,0.46,2148.97,23.95,-1.06,3.32
2025-04-29 17:48:25.020,117.31,-12.84,0.57,2155.5,23.94,-1.05,3.32
2025-04-29 17:48:25.580,117.87,-12.89,0.49,2165.25,23.93,-1.08,3.32
2025-04-29 17:48:26.140,118.43,-12.84,0.49,2171.77,23.93,-1.09,3.31
2025-04-29 17:48:26.700,118.99,-12.46,0.52,2178.23,23.91,-1.09,3.29
2025-04-29 17:48:27.258,119.54,-12.72,0.52,2184.71,23.9,-1.08,3.32
2025-04-29 17:48:27.819,120.11,-12.21,0.52,2194.3,23.89,-1.08,3.29
2025-04-29 17:48:28.381,120.67,-12.92,0.55,2200.87,23.88,-1.07,3.28
2025-04-29 17:48:28.940,121.23,-12.93,0.49,2207.39,23.87,-1.09,3.32
2025-04-29 17:48:29.498,121.78,-12.81,0.51,2213.82,23.86,-1.06,3.26
2025-04-29 17:48:30.060,122.35,-12.92,0.6,2220.37,23.86,-1.07,3.32
2025-04-29 17:48:30.591,122.88,-12.74,0.56,2230.12,23.83,-1.07,3.3
2025-04-29 17:48:31.099,123.39,-12.72,0.54,2236.33,23.82,-1.08,3.32
2025-04-29 17:48:31.658,123.95,-12.8,0.56,2243.06,23.8,-1.08,3.3
2025-04-29 17:48:32.220,124.51,-12.46,0.5,2249.64,23.81,-1.06,3.31
2025-04-29 17:48:32.778,125.06,-11.8,0.31,2256.01,23.81,-1.08,3.32
2025-04-29 17:48:33.338,125.63,-10.34,0.38,2265.47,23.8,-1.07,3.32
2025-04-29 17:48:33.899,126.19,-14.09,0.1,2271.52,23.79,-1.07,3.3
2025-04-29 17:48:34.455,126.74,-6.56,0.37,2278.71,23.77,-1.07,3.31
2025-04-29 17:48:35.018,127.30,-7.43,0.36,2285.76,23.76,-1.06,3.32
2025-04-29 17:48:35.579,127.87,-7.42,0.56,2295.39,23.75,-1.06,3.32
2025-04-29 17:48:36.134,128.42,-7.56,0.54,2301.48,23.75,-1.06,3.31
2025-04-29 17:48:36.693,128.98,-7.15,0.49,2307.67,23.75,-1.03,3.34
2025-04-29 17:48:37.256,129.54,-8.08,0.44,2314.32,23.73,-1.02,3.33
2025-04-29 17:48:37.817,130.10,-8.53,0.43,2320.8,23.72,-0.99,3.32
2025-04-29 17:48:38.343,130.63,-7.91,0.39,2330.73,23.69,-0.98,3.33
2025-04-29 17:48:38.855,131.14,-8.06,0.31,2337.23,23.68,-0.99,3.32
2025-04-29 17:48:39.382,131.67,-8.49,0.29,2343.61,23.69,-0.98,3.31
2025-04-29 17:48:39.896,132.18,-7.9,0.38,2350.07,23.69,-0.98,3.28
2025-04-29 17:48:40.452,132.74,-7.76,0.38,2356.66,23.69,-1.01,3.23
2025-04-29 17:48:41.013,133.30,-7.77,0.39,2363.15,23.69,-1.01,3.33
2025-04-29 17:48:41.577,133.86,-8.09,0.39,2369.61,23.7,-1.01,3.32
2025-04-29 17:48:42.138,134.43,-8.49,0.31,2379.33,23.7,-1.0,3.31
2025-04-29 17:48:42.697,134.98,-8.39,0.39,2385.79,23.7,-1.02,3.31
2025-04-29 17:48:43.255,135.54,-8.33,0.35,2392.13,23.71,-1.02,3.32
2025-04-29 17:48:43.810,136.10,-8.09,0.22,2398.65,23.72,-1.03,3.31
2025-04-29 17:48:44.371,136.66,-8.35,0.26,2408.28,23.73,-1.04,3.31
2025-04-29 17:48:44.931,137.22,-7.94,0.34,2414.77,23.73,-1.06,3.31
2025-04-29 17:48:45.494,137.78,-7.82,0.33,2421.3,23.72,-1.06,3.32
2025-04-29 17:48:46.051,138.34,-8.24,0.37,2427.72,23.71,-1.07,3.33
2025-04-29 17:48:46.612,138.90,-8.15,0.34,2437.38,23.72,-1.11,3.31
2025-04-29 17:48:47.175,139.46,-8.76,0.47,2443.86,23.72,-1.09,3.32
2025-04-29 17:48:47.730,140.02,-7.69,0.33,2450.44,23.74,-1.09,3.31
2025-04-29 17:48:48.298,140.59,-7.83,0.3,2456.89,23.74,-1.08,3.32
2025-04-29 17:48:48.848,141.13,-7.88,0.28,2466.47,23.75,-1.12,3.31
2025-04-29 17:48:49.408,141.70,-7.59,0.26,2473.08,23.75,-1.11,3.29
2025-04-29 17:48:49.969,142.26,-8.14,0.27,2479.56,23.75,-1.11,3.32
2025-04-29 17:48:50.542,142.83,-7.52,0.08,2486.26,23.76,-1.12,3.31
2025-04-29 17:48:51.089,143.38,-7.09,0.26,2492.49,23.77,-1.14,3.33
2025-04-29 17:48:51.653,143.94,-7.26,0.1,2502.74,23.77,-1.13,3.31
2025-04-29 17:48:52.210,144.50,-7.09,0.3,2508.85,23.78,-1.13,3.33
2025-04-29 17:48:52.737,145.02,-9.55,-0.2,2515.61,23.78,-1.15,3.32
2025-04-29 17:48:53.251,145.54,-8.29,0.15,2521.93,23.79,-1.1,3.3
2025-04-29 17:48:53.789,146.08,-8.65,-0.29,2528.34,23.79,-1.08,3.27
2025-04-29 17:48:56.094,148.38,-8.69,0.49,2554.24,23.78,-1.06,3.31
2025-04-29 17:48:56.647,148.93,-7.02,-0.1,2567.31,23.79,-1.04,3.31
2025-04-29 17:48:57.208,149.50,-8.51,0.04,2573.76,23.8,-1.02,3.32
2025-04-29 17:48:57.766,150.05,-10.03,0.23,2580.15,23.81,-0.98,3.32
2025-04-29 17:48:58.324,150.61,-9.35,0.28,2586.95,23.81,-0.99,3.32
2025-04-29 17:48:58.885,151.17,-9.54,0.44,2596.96,23.8,-1.0,3.31
2025-04-29 17:48:59.444,151.73,-9.89,0.55,2603.11,23.79,-0.99,3.32
2025-04-29 17:49:00.007,152.29,-8.85,0.33,2609.4,23.77,-0.96,3.31
2025-04-29 17:49:00.564,152.85,-8.37,0.45,2615.9,23.76,-0.97,3.31
2025-04-29 17:49:02.115,154.40,-7.96,0.84,2638.45,23.69,-0.93,3.32
2025-04-29 17:49:02.643,154.93,-8.2,0.03,2644.51,23.69,-0.95,3.31
2025-04-29 17:49:03.206,155.49,-8.78,0.22,2650.91,23.67,-0.94,3.31
2025-04-29 17:49:04.119,156.41,-9.23,-0.27,2663.36,23.63,-0.93,3.29
2025-04-29 17:49:04.688,156.97,-6.83,-0.57,2670.54,23.62,-0.92,3.3
2025-04-29 17:49:05.291,157.58,-7.51,0.17,2676.84,23.61,-0.94,3.3
2025-04-29 17:49:05.812,158.10,-7.69,-1.01,2682.77,23.61,-0.94,3.27
2025-04-29 17:49:06.475,158.76,-9.27,0.73,2691.85,23.6,-0.94,3.26
2025-04-29 17:49:06.981,159.27,-7.94,-0.36,2698.29,23.61,-0.92,3.31
2025-04-29 17:49:07.522,159.81,-7.9,-0.4,2704.7,23.63,-0.94,3.32
2025-04-29 17:49:08.078,160.37,-8.09,-0.38,2711.28,23.64,-0.94,3.29
2025-04-29 17:49:08.599,160.89,-8.18,-0.39,2717.74,23.65,-0.97,3.27
2025-04-29 17:49:09.161,161.45,-8.4,-1.61,2727.65,23.64,-1.0,3.31
2025-04-29 17:49:09.720,162.01,-9.28,-1.07,2733.51,23.64,-1.01,3.31
2025-04-29 17:49:10.283,162.57,-7.71,-0.02,2740.6,23.65,-1.01,3.29
2025-04-29 17:49:10.848,163.14,-8.19,-0.52,2747.26,23.66,-1.01,3.3
2025-04-29 17:49:11.641,163.93,-9.9,0.14,2759.58,23.69,-1.02,3.29
2025-04-29 17:49:12.174,164.46,-9.71,0.08,2766.4,23.77,-1.03,3.29
2025-04-29 17:49:12.679,164.97,-8.2,-0.09,2773.82,23.78,-1.02,3.31
2025-04-29 17:49:13.245,165.53,-8.23,0.13,2780.26,23.79,-1.0,3.31
2025-04-29 17:49:13.801,166.09,-8.73,0.07,2786.36,23.78,-1.02,3.32
2025-04-29 17:49:14.357,166.64,-8.57,-1.17,2793.15,23.78,-1.01,3.28
2025-04-29 17:49:14.916,167.20,-7.25,-0.52,2802.79,23.79,-0.99,3.32
2025-04-29 17:49:15.526,167.81,-7.65,0.07,2810.91,23.8,-1.0,3.31
2025-04-29 17:49:16.036,168.32,-7.53,-0.72,2817.58,23.81,-0.99,3.29
2025-04-29 17:49:16.595,168.88,-8.15,-0.44,2824.04,23.82,-1.0,3.3
2025-04-29 17:49:17.155,169.44,-5.48,-0.54,2834.24,23.84,-1.0,3.31
2025-04-29 17:49:17.717,170.00,-5.12,-1.14,2840.95,23.85,-0.99,3.31
2025-04-29 17:49:18.278,170.56,-5.75,-0.82,2847.55,23.85,-0.98,3.29
2025-04-29 17:49:18.836,171.12,-6.04,0.23,2853.94,23.85,-1.01,3.32
2025-04-29 17:49:19.394,171.68,-3.97,-0.88,2863.36,23.86,-1.01,3.31
2025-04-29 17:49:19.957,172.24,-8.31,-0.55,2869.39,23.87,-0.99,3.28
2025-04-29 17:49:20.515,172.80,-7.24,-0.59,2875.75,23.89,-1.0,3.27
2025-04-29 17:49:21.076,173.36,-8.46,-0.17,2881.47,23.9,-1.0,3.32
2025-04-29 17:49:21.637,173.92,-7.36,-1.24,2887.64,23.91,-1.0,3.3
2025-04-29 17:49:22.195,174.48,-6.15,-0.06,2898.67,23.91,-0.99,3.31
2025-04-29 17:49:22.755,175.04,-6.41,-0.58,2906.56,23.93,-0.97,3.31
2025-04-29 17:49:23.314,175.60,-6.76,-0.44,2914.13,23.94,-1.01,3.31
2025-04-29 17:49:23.876,176.16,-6.52,-1.23,2920.58,23.94,-1.01,3.31
2025-04-29 17:49:24.406,176.69,-7.11,-1.17,2930.22,23.94,-1.0,3.31
2025-04-29 17:49:24.915,177.20,-4.83,-1.02,2934.66,23.94,-0.97,3.26
2025-04-29 17:49:25.479,177.77,-5.01,-1.1,2941.36,23.92,-0.99,3.29
2025-04-29 17:49:26.032,178.32,-6.73,-1.14,2947.52,23.91,-0.99,3.3
2025-04-29 17:49:26.596,178.88,-6.78,-0.99,2952.72,23.91,-0.97,3.3
2025-04-29 17:49:27.154,179.44,-7.51,-0.61,2960.46,23.91,-0.94,3.31
2025-04-29 17:49:27.724,180.01,-6.36,-0.36,2970.86,23.92,-0.98,3.3
2025-04-29 17:49:28.357,180.64,-6.47,-0.66,2976.27,23.92,-0.98,3.31
2025-04-29 17:49:28.915,181.20,-7.47,0.16,2985.18,23.93,-1.02,3.3
2025-04-29 17:49:29.519,181.81,-6.66,-0.94,2991.95,23.93,-1.03,3.29
2025-04-29 17:49:30.226,182.51,-4.97,-1.45,2999.92,23.94,-1.03,3.31
2025-04-29 17:49:30.792,183.08,-4.77,-1.37,3007.76,23.94,-1.07,3.3
2025-04-29 17:49:31.353,183.64,-5.76,-0.91,3014.77,23.94,-1.05,3.32
2025-04-29 17:49:31.911,184.20,-6.02,-0.24,3020.38,23.93,-1.07,3.3
2025-04-29 17:49:32.475,184.76,-6.63,-1.08,3028.09,23.93,-1.13,3.32
2025-04-29 17:49:33.030,185.32,-7.7,-0.98,3034.43,23.95,-1.13,3.31
2025-04-29 17:49:33.590,185.88,-8.17,-0.74,3040.68,23.95,-1.13,3.31
2025-04-29 17:49:34.148,186.44,-8.23,-0.96,3047.14,23.97,-1.15,3.29
2025-04-29 17:49:34.716,187.00,-8.13,-0.95,3056.89,23.98,-1.17,3.31
2025-04-29 17:49:35.268,187.56,-7.84,-0.98,3063.41,23.99,-1.16,3.3
2025-04-29 17:49:35.828,188.11,-7.61,-0.88,3069.64,23.99,-1.17,3.31
2025-04-29 17:49:36.391,188.68,-7.78,-0.92,3076.43,23.98,-1.18,3.26
2025-04-29 17:49:36.948,189.24,-7.59,-1.05,3086.16,23.97,-1.16,3.36
2025-04-29 17:49:37.511,189.80,-7.9,-0.93,3092.56,23.97,-1.14,3.32
2025-04-29 17:49:38.072,190.36,-8.05,-0.81,3098.92,23.98,-1.18,3.29
2025-04-29 17:49:38.628,190.91,-7.66,-0.89,3105.39,23.98,-1.16,3.27
2025-04-29 17:49:39.186,191.47,-7.34,-0.91,3115.06,24.01,-1.18,3.3
2025-04-29 17:49:39.747,192.03,-6.82,-0.99,3121.21,24.01,-1.2,3.29
2025-04-29 17:49:40.319,192.61,-7.42,-0.87,3127.88,24.02,-1.22,3.3
2025-04-29 17:49:40.868,193.16,-7.68,-0.84,3134.22,24.01,-1.25,3.3
2025-04-29 17:49:41.430,193.72,-7.49,-0.92,3143.72,24.0,-1.28,3.31
2025-04-29 17:49:41.992,194.28,-7.3,-0.95,3150.24,23.98,-1.3,3.3
2025-04-29 17:49:42.547,194.83,-7.99,-0.86,3156.67,23.98,-1.29,3.31
2025-04-29 17:49:43.111,195.40,-7.49,-0.85,3163.19,23.99,-1.33,3.24
2025-04-29 17:49:43.667,195.95,-7.34,-0.89,3169.63,24.0,-1.33,3.26
2025-04-29 17:49:44.225,196.51,-7.44,-0.86,3179.37,23.98,-1.32,3.3
2025-04-29 17:49:44.834,197.12,-7.63,-0.89,3186.06,23.98,-1.36,3.29
2025-04-29 17:49:45.345,197.63,-7.93,-0.83,3192.59,23.96,-1.38,3.3
2025-04-29 17:49:45.908,198.19,-7.53,-0.88,3199.12,23.96,-1.39,3.29
2025-04-29 17:49:46.472,198.76,-7.47,-0.89,3208.91,23.95,-1.38,3.3
2025-04-29 17:49:47.029,199.32,-7.23,-0.99,3215.42,23.95,-1.35,3.3
2025-04-29 17:49:47.565,199.85,-6.92,-1.0,3221.78,23.96,-1.35,3.29
2025-04-29 17:49:48.145,200.43,-7.68,-0.84,3228.71,23.97,-1.38,3.26
2025-04-29 17:49:48.708,201.00,-8.56,-0.94,3238.17,23.96,-1.35,3.31
2025-04-29 17:49:49.263,201.55,-7.68,-0.89,3244.5,23.96,-1.35,3.29
2025-04-29 17:49:49.824,202.11,-7.41,-0.99,3251.1,23.96,-1.35,3.3
2025-04-29 17:49:50.383,202.67,-7.2,-1.05,3257.5,23.96,-1.34,3.3
2025-04-29 17:49:50.950,203.24,-7.89,-0.9,3267.33,23.97,-1.32,3.3
2025-04-29 17:49:51.508,203.79,-7.95,-0.94,3273.84,23.97,-1.34,3.29
2025-04-29 17:49:52.063,204.35,-7.5,-0.86,3280.23,23.98,-1.38,3.29
2025-04-29 17:49:52.627,204.91,-7.47,-0.9,3286.66,23.98,-1.37,3.29
2025-04-29 17:49:53.186,205.47,-7.64,-0.85,3293.17,23.99,-1.37,3.29
2025-04-29 17:49:53.743,206.03,-7.44,-0.89,3302.97,23.99,-1.35,3.28
2025-04-29 17:49:54.303,206.59,-7.73,-0.79,3309.49,23.99,-1.32,3.3
2025-04-29 17:49:54.863,207.15,-6.76,-0.95,3315.86,23.97,-1.29,3.29
2025-04-29 17:49:55.425,207.71,-10.55,-1.55,3318.37,23.96,-1.29,3.26
2025-04-29 17:49:55.986,208.27,-42.25,-5.99,3330.06,23.94,-1.27,3.29
2025-04-29 17:49:56.540,208.83,-78.59,3.36,3345.1,23.95,-1.18,3.29
2025-04-29 17:49:57.100,209.39,-65.53,1.25,3351.92,23.96,-1.07,3.29
2025-04-29 17:49:57.657,209.94,-72.72,2.23,3357.83,23.97,-1.07,3.29
2025-04-29 17:49:58.218,210.51,-72.04,1.85,3367.59,23.97,-0.91,3.29
2025-04-29 17:49:58.779,211.07,-70.0,1.83,3374.57,23.95,-0.9,3.3
2025-04-29 17:49:59.337,211.62,-84.37,3.88,3382.41,23.95,-0.86,3.3
2025-04-29 17:49:59.949,212.24,-80.85,-5.64,3381.67,23.99,-0.83,3.29
2025-04-29 17:50:00.459,212.75,-69.95,-4.47,3386.19,24.02,-0.83,3.29
2025-04-29 17:50:01.017,213.30,-66.6,-7.37,3391.95,24.04,-0.88,3.29
2025-04-29 17:50:01.577,213.86,-71.43,-1.42,3405.96,24.07,-0.87,3.29
2025-04-29 17:50:02.140,214.43,-70.93,1.13,3411.0,24.06,-0.87,3.29
2025-04-29 17:50:02.696,214.98,-70.87,3.18,3430.5,24.07,-0.87,3.29
2025-04-29 17:50:03.256,215.54,-66.79,15.16,3436.31,24.11,-0.97,3.27
2025-04-29 17:50:03.817,216.10,-71.9,9.17,3440.69,24.13,-1.04,3.29
2025-04-29 17:50:04.375,216.66,-70.43,13.06,3450.1,24.15,-1.04,3.29
2025-04-29 17:50:04.935,217.22,-73.82,11.98,3454.74,24.17,-1.07,3.3
2025-04-29 17:50:05.494,217.78,-63.76,21.42,3475.56,24.21,-1.21,3.29
2025-04-29 17:50:06.057,218.34,-55.5,20.32,3471.99,24.22,-1.38,3.28
2025-04-29 17:50:06.618,218.90,-55.92,17.78,3483.83,24.21,-1.38,3.29
2025-04-29 17:50:07.177,219.46,-58.8,22.44,3492.79,24.19,-1.74,3.28
2025-04-29 17:50:07.735,220.02,-62.03,18.24,3501.27,24.21,-2.14,3.31
2025-04-29 17:50:08.294,220.58,-58.39,16.32,3504.66,24.2,-2.38,3.29
2025-04-29 17:50:08.854,221.14,-60.54,20.7,3510.16,24.21,-2.38,3.29
2025-04-29 17:50:09.412,221.70,-63.11,20.44,3520.26,24.26,-2.57,3.29
2025-04-29 17:50:09.974,222.26,-61.83,22.93,3535.93,24.31,-2.52,3.29
2025-04-29 17:50:10.535,222.82,-56.35,26.49,3530.88,24.34,-2.59,3.29
2025-04-29 17:50:11.094,223.38,-53.3,23.6,3542.45,24.31,-2.59,3.29
2025-04-29 17:50:11.655,223.94,-51.54,28.24,3552.9,24.31,-2.71,3.32
2025-04-29 17:50:12.213,224.50,-52.8,34.06,3559.1,24.28,-2.78,3.29
2025-04-29 17:50:12.772,225.06,-57.33,33.05,3559.14,24.23,-2.51,3.33
2025-04-29 17:50:13.338,225.62,-69.93,24.56,3564.42,24.18,-2.51,3.29
2025-04-29 17:50:13.891,226.18,-67.37,25.73,3562.99,24.17,-2.33,3.29
2025-04-29 17:50:14.452,226.74,-59.04,26.56,3582.87,24.18,-2.27,3.28
2025-04-29 17:50:15.013,227.30,-55.38,29.35,3590.44,24.17,-2.17,3.29
2025-04-29 17:50:15.572,227.86,-60.93,22.98,3597.29,24.19,-2.17,3.3
2025-04-29 17:50:16.135,228.42,-59.91,26.87,3603.4,24.18,-2.28,3.29
2025-04-29 17:50:16.695,228.98,-60.74,25.88,3608.22,24.18,-2.38,3.29
2025-04-29 17:50:17.255,229.54,-43.57,2.75,3625.28,24.18,-2.35,3.29
2025-04-29 17:50:17.812,230.10,-42.42,-14.04,3634.62,24.16,-2.35,3.3
2025-04-29 17:50:18.371,230.66,-31.31,-9.22,3634.83,24.13,-2.23,3.29
2025-04-29 17:50:18.937,231.22,-29.57,-22.05,3652.74,24.1,-2.03,3.35
2025-04-29 17:50:19.491,231.78,-31.8,-18.98,3666.91,24.05,-1.77,3.29
2025-04-29 17:50:20.052,232.34,-28.56,-18.84,3669.19,24.02,-1.98,3.26
2025-04-29 17:50:20.611,232.90,-27.15,-20.64,3674.33,24.01,-1.7,3.29
2025-04-29 17:50:21.175,233.46,-25.8,-21.23,3679.84,24.01,-1.6,3.25
2025-04-29 17:50:21.741,234.03,-26.35,-20.58,3688.78,23.98,-1.38,3.29
2025-04-29 17:50:22.301,234.59,-24.29,-22.86,3690.89,23.97,-1.38,3.29
2025-04-29 17:50:22.856,235.14,-20.82,-7.31,3691.93,23.94,-1.28,3.3
2025-04-29 17:50:23.416,235.70,-18.99,-16.61,3698.34,23.93,-1.2,3.32
2025-04-29 17:50:23.973,236.26,-19.56,-22.56,3704.39,23.91,-1.08,3.28
2025-04-29 17:50:24.536,236.82,-17.83,-14.31,3705.59,23.86,-1.03,3.29
2025-04-29 17:50:25.092,237.38,-20.42,-8.71,3713.46,23.83,-0.92,3.29
2025-04-29 17:50:25.653,237.94,-20.18,-8.34,3723.35,23.8,-0.91,3.28
2025-04-29 17:50:26.216,238.50,-24.51,-8.78,3733.58,23.76,-0.84,3.28
2025-04-29 17:50:26.767,239.05,-24.57,-11.12,3741.34,23.7,-0.79,3.29
2025-04-29 17:50:27.332,239.62,-27.4,-4.73,3751.5,23.65,-0.73,3.29
2025-04-29 17:50:27.866,240.15,-32.82,-7.15,3757.48,23.62,-0.69,3.29
2025-04-29 17:50:28.366,240.65,-30.51,-0.34,3768.35,23.56,-0.66,3.28
2025-04-29 17:50:28.928,241.22,-32.73,-4.11,3770.48,23.54,-0.57,3.29
2025-04-29 17:50:29.486,241.77,-29.27,-1.37,3776.42,23.48,-0.55,3.29
2025-04-29 17:50:30.047,242.33,-30.17,-2.7,3780.41,23.41,-0.52,3.29
2025-04-29 17:50:30.606,242.89,-30.26,-7.67,3786.96,23.37,-0.49,3.29
2025-04-29 17:50:31.165,243.45,-30.57,-2.57,3796.65,23.32,-0.44,3.29
2025-04-29 17:50:31.725,244.01,-29.77,-4.93,3800.67,23.29,-0.43,3.29
2025-04-29 17:50:32.285,244.57,-44.69,-5.69,3807.61,23.24,-0.4,3.29
2025-04-29 17:50:32.814,245.10,-55.73,-10.09,3805.22,23.21,-0.4,3.28
2025-04-29 17:50:33.322,245.61,-65.64,-31.06,3803.7,23.18,-0.34,3.29
2025-04-29 17:50:33.841,246.13,-69.44,-22.86,3813.69,23.16,-0.29,3.29
2025-04-29 17:50:34.364,246.65,-72.59,-15.82,3824.1,23.14,-0.25,3.29
2025-04-29 17:50:34.924,247.21,-64.39,-19.4,3829.28,23.11,-0.2,3.29
2025-04-29 17:50:35.481,247.77,-89.45,3.32,3850.12,23.09,-0.1,3.29
2025-04-29 17:50:36.045,248.33,-67.5,10.74,3862.58,23.1,-0.05,3.29
2025-04-29 17:50:36.608,248.90,-19.41,11.11,3860.84,23.08,0.05,3.29
2025-04-29 17:50:37.162,249.45,-22.94,3.09,3840.33,23.06,0.07,3.35
2025-04-29 17:50:37.721,250.01,-64.02,21.87,3865.84,23.05,0.12,3.29
2025-04-29 17:50:38.283,250.57,-66.77,4.72,3862.22,23.04,0.2,3.29
2025-04-29 17:50:38.843,251.13,-73.33,1.71,3870.05,23.01,0.23,3.26
2025-04-29 17:50:39.406,251.69,-65.51,4.55,3878.48,22.99,0.26,3.29
2025-04-29 17:50:39.961,252.25,-70.11,5.21,3882.65,22.97,0.32,3.29
2025-04-29 17:50:40.531,252.82,-34.28,1.09,3890.86,22.96,0.35,3.29
2025-04-29 17:50:41.057,253.34,-38.29,5.67,3897.59,22.94,0.36,3.28
2025-04-29 17:50:41.564,253.85,-21.92,3.65,3903.42,22.91,0.38,3.29
2025-04-29 17:50:42.122,254.41,-14.65,8.55,3910.88,22.89,0.38,3.29
2025-04-29 17:50:42.682,254.97,-12.13,8.61,3918.5,22.89,0.38,3.28
2025-04-29 17:50:43.246,255.53,-11.14,8.25,3924.97,22.89,0.34,3.29
2025-04-29 17:50:43.806,256.09,-12.81,8.9,3935.6,22.87,0.33,3.28
2025-04-29 17:50:44.366,256.65,-9.36,8.95,3942.21,22.84,0.38,3.29
2025-04-29 17:50:44.919,257.21,-9.27,8.9,3950.19,22.82,0.38,3.28
2025-04-29 17:50:45.478,257.76,-7.84,8.9,3958.24,22.8,0.37,3.28
2025-04-29 17:50:46.040,258.33,-7.43,8.65,3967.54,22.75,0.37,3.28
2025-04-29 17:50:46.599,258.89,-7.25,8.82,3973.87,22.71,0.37,3.27
2025-04-29 17:50:47.160,259.45,-7.29,8.76,3980.24,22.7,0.37,3.28
2025-04-29 17:50:47.720,260.01,-6.71,8.72,3986.74,22.68,0.35,3.28
2025-04-29 17:50:48.280,260.57,-6.88,8.91,3993.33,22.66,0.33,3.28
2025-04-29 17:50:48.840,261.13,-7.54,8.7,4003.28,22.62,0.37,3.28
2025-04-29 17:50:49.454,261.74,-6.75,8.45,4009.27,22.62,0.37,3.28
2025-04-29 17:50:49.963,262.25,-7.5,10.18,4015.87,22.61,0.35,3.28
2025-04-29 17:50:50.520,262.81,-39.61,0.79,4019.27,22.61,0.35,3.28
2025-04-29 17:50:51.079,263.37,-73.54,2.97,4030.71,22.6,0.24,3.28
2025-04-29 17:50:51.636,263.92,-73.63,4.05,4037.36,22.62,0.24,3.27
2025-04-29 17:50:52.199,264.49,-70.8,3.73,4044.24,22.62,0.23,3.29
2025-04-29 17:50:52.756,265.04,-71.84,3.78,4050.42,22.63,0.24,3.28
2025-04-29 17:50:53.315,265.60,-80.05,5.3,4059.87,22.64,0.15,3.29
2025-04-29 17:50:53.873,266.16,-82.77,5.16,4065.22,22.64,0.15,3.28
2025-04-29 17:50:54.434,266.72,-82.79,4.95,4073.49,22.66,0.05,3.27
2025-04-29 17:50:54.993,267.28,-81.92,5.71,4080.03,22.68,-0.04,3.28
2025-04-29 17:50:55.554,267.84,-81.64,5.52,4088.89,22.71,-0.23,3.29
2025-04-29 17:50:56.115,268.40,-81.85,5.85,4094.3,22.72,-0.23,3.27
2025-04-29 17:50:56.674,268.96,-81.76,4.3,4100.75,22.73,-0.32,3.28
2025-04-29 17:50:57.232,269.52,-81.4,5.64,4110.43,22.74,-0.4,3.29
2025-04-29 17:50:57.795,270.08,-81.41,2.72,4113.34,22.76,-0.44,3.28
2025-04-29 17:50:58.352,270.64,-82.99,4.09,4123.09,22.77,-0.47,3.29
2025-04-29 17:50:58.912,271.20,-82.71,3.86,4131.61,22.77,-0.51,3.28
2025-04-29 17:50:59.477,271.76,-83.09,3.77,4137.69,22.79,-0.53,3.28
2025-04-29 17:51:00.031,272.32,-82.38,4.67,4144.57,22.81,-0.6,3.28
2025-04-29 17:51:00.591,272.88,-74.13,5.38,4154.62,22.83,-0.6,3.28
2025-04-29 17:51:01.152,273.44,-79.04,5.68,4158.1,22.86,-0.64,3.28
2025-04-29 17:51:01.711,274.00,-75.32,-0.5,4157.77,22.89,-0.66,3.27
2025-04-29 17:51:02.270,274.56,-77.64,-0.17,4163.67,22.92,-0.78,3.27
2025-04-29 17:51:02.831,275.12,-70.8,-6.77,4167.18,22.95,-0.77,3.28
2025-04-29 17:51:03.392,275.68,-74.75,-7.4,4172.67,22.99,-0.82,3.28
2025-04-29 17:51:03.954,276.24,-69.2,-9.87,4178.0,23.02,-0.88,3.27
2025-04-29 17:51:04.510,276.80,-66.57,2.38,4193.97,23.02,-0.85,3.24
2025-04-29 17:51:05.082,277.37,-61.68,15.24,4210.01,23.03,-0.88,3.28
2025-04-29 17:51:05.629,277.92,-78.87,3.0,4215.51,23.04,-0.94,3.27
2025-04-29 17:51:06.189,278.48,-73.45,0.7,4204.02,23.07,-0.96,3.27
2025-04-29 17:51:06.749,279.04,-50.42,-15.99,4206.84,23.1,-0.98,3.27
2025-04-29 17:51:07.314,279.60,-40.78,-3.02,4224.7,23.09,-0.93,3.31
2025-04-29 17:51:07.873,280.16,-73.05,-1.58,4228.56,23.07,-0.98,3.28
2025-04-29 17:51:08.431,280.72,-82.92,-1.7,4230.22,23.1,-0.89,3.28
2025-04-29 17:51:08.991,281.28,-75.54,-8.05,4232.03,23.14,-0.88,3.27
2025-04-29 17:51:09.548,281.84,-71.7,-13.23,4235.06,23.17,-0.94,3.26
2025-04-29 17:51:10.107,282.39,-70.57,-13.23,4244.76,23.21,-0.97,3.28
2025-04-29 17:51:10.669,282.96,-62.67,-21.31,4246.95,23.23,-0.96,3.28
2025-04-29 17:51:11.193,283.48,-71.53,-25.71,4260.02,23.25,-0.86,3.29
2025-04-29 17:51:11.708,284.00,-69.21,-15.66,4269.95,23.22,-0.8,3.25
2025-04-29 17:51:12.267,284.55,-62.28,-27.59,4268.2,23.19,-0.64,3.28
2025-04-29 17:51:12.826,285.11,-67.44,-16.84,4282.51,23.17,-0.54,3.27
2025-04-29 17:51:13.386,285.67,-65.43,-8.58,4287.09,23.14,-0.54,3.26
2025-04-29 17:51:13.946,286.23,-71.16,-7.37,4288.62,23.1,-0.52,3.27
2025-04-29 17:51:14.505,286.79,-68.42,-16.3,4293.29,23.1,-0.52,3.27
2025-04-29 17:51:15.065,287.35,-72.32,-15.65,4301.8,23.12,-0.49,3.28
2025-04-29 17:51:15.624,287.91,-73.03,-21.66,4309.64,23.15,-0.48,3.27
2025-04-29 17:51:16.184,288.47,-76.03,-13.59,4315.19,23.14,-0.45,3.28
2025-04-29 17:51:16.744,289.03,-74.22,-16.39,4322.1,23.14,-0.41,3.28
2025-04-29 17:51:17.303,289.59,-77.95,-9.87,4330.94,23.13,-0.37,3.27
2025-04-29 17:51:17.864,290.15,-73.99,-13.93,4340.81,23.15,-0.42,3.27
2025-04-29 17:51:18.424,290.71,-73.68,-17.99,4340.63,23.17,-0.45,3.27
2025-04-29 17:51:18.983,291.27,-72.21,-20.99,4348.76,23.18,-0.52,3.23
2025-04-29 17:51:19.546,291.83,-78.12,-16.54,4360.86,23.19,-0.47,3.23
2025-04-29 17:51:20.103,292.39,-81.94,-7.29,4374.62,23.18,-0.42,3.27
2025-04-29 17:51:20.664,292.95,-80.64,-6.82,4384.95,23.2,-0.38,3.27
2025-04-29 17:51:21.222,293.51,-78.06,-2.0,4393.85,23.21,-0.36,3.24
2025-04-29 17:51:21.781,294.07,-81.77,-3.44,4396.66,23.21,-0.33,3.27
2025-04-29 17:51:22.342,294.63,-76.06,-9.01,4399.63,23.2,-0.31,3.28
2025-04-29 17:51:22.902,295.19,-77.96,-6.73,4409.04,23.23,-0.35,3.26
2025-04-29 17:51:23.463,295.75,-76.57,-8.73,4409.16,23.27,-0.44,3.26
2025-04-29 17:51:24.023,296.31,-79.94,-8.45,4413.39,23.31,-0.52,3.29
2025-04-29 17:51:24.580,296.87,-78.87,-10.17,4430.7,23.35,-0.53,3.27
2025-04-29 17:51:25.142,297.43,-81.55,10.05,4451.29,23.36,-0.54,3.28
2025-04-29 17:51:25.704,297.99,-87.39,-1.24,4448.53,23.37,-0.51,3.23
2025-04-29 17:51:26.262,298.55,-81.22,-4.01,4451.24,23.38,-0.55,3.27
2025-04-29 17:51:26.822,299.11,-76.68,-8.41,4449.44,23.38,-0.63,3.27
2025-04-29 17:51:27.379,299.67,-69.53,-15.69,4462.25,23.42,-0.71,3.27
2025-04-29 17:51:27.940,300.23,-76.57,0.14,4469.62,23.45,-0.72,3.23
2025-04-29 17:51:28.502,300.79,-71.84,-11.64,4469.71,23.47,-0.82,3.27
2025-04-29 17:51:29.061,301.35,-69.21,-12.68,4478.42,23.48,-0.91,3.29
2025-04-29 17:51:29.621,301.91,-71.52,-11.95,4487.24,23.5,-0.93,3.28
2025-04-29 17:51:30.182,302.47,-71.48,-10.58,4495.24,23.53,-0.99,3.23
2025-04-29 17:51:30.739,303.03,-70.75,-12.45,4500.85,23.54,-1.06,3.27
2025-04-29 17:51:31.297,303.58,-73.15,-10.2,4504.66,23.57,-1.13,3.27
2025-04-29 17:51:31.862,304.15,-72.72,-8.59,4517.25,23.61,-1.15,3.27
2025-04-29 17:51:32.420,304.71,-69.63,-15.38,4525.63,23.63,-1.11,3.26
2025-04-29 17:51:32.978,305.26,-69.4,-9.5,4533.45,23.66,-1.13,3.27
2025-04-29 17:51:33.537,305.82,-74.21,-7.08,4536.86,23.67,-1.08,3.27
2025-04-29 17:51:34.100,306.39,-66.43,-13.28,4540.09,23.69,-1.08,3.27
2025-04-29 17:51:34.662,306.95,-53.61,-14.52,4551.61,23.72,-1.1,3.27
2025-04-29 17:51:35.219,307.51,-33.84,-6.1,4556.24,23.73,-1.04,3.27
2025-04-29 17:51:35.776,308.06,-28.82,29.26,4549.92,23.73,-1.04,3.27
2025-04-29 17:51:36.335,308.62,-48.43,28.52,4529.49,23.73,-1.04,3.27
2025-04-29 17:51:36.895,309.18,-53.4,13.41,4541.18,23.73,-2.55,3.27
2025-04-29 17:51:37.457,309.74,-55.68,17.73,4550.33,23.74,-3.0,3.27
2025-04-29 17:51:38.018,310.30,-59.09,18.07,4552.54,23.74,-2.99,3.27
2025-04-29 17:51:38.574,310.86,-59.38,16.33,4564.6,23.71,-2.99,3.27
2025-04-29 17:51:39.138,311.43,-57.15,18.11,4575.72,23.68,-2.85,3.27
2025-04-29 17:51:39.694,311.98,-55.42,40.38,4592.0,23.62,-2.83,3.27
2025-04-29 17:51:40.254,312.54,-39.83,43.17,4603.92,23.6,-6.64,3.27
2025-04-29 17:51:40.815,313.10,-46.79,40.64,4605.09,23.61,-6.64,3.27
2025-04-29 17:51:41.377,313.66,-47.91,38.25,4618.27,23.63,-9.75,3.27
2025-04-29 17:51:41.933,314.22,-44.69,42.59,4625.75,23.62,-9.38,3.27
2025-04-29 17:51:42.492,314.78,-48.17,38.92,4630.47,23.59,-9.04,3.24
2025-04-29 17:51:43.052,315.34,-48.68,40.54,4629.82,23.6,-9.04,3.28
2025-04-29 17:51:43.613,315.90,-54.19,35.03,4636.85,23.63,-26.06,3.27
2025-04-29 17:51:44.172,316.46,-45.35,40.62,4644.56,23.67,-50.11,3.23
2025-04-29 17:51:44.733,317.02,-51.44,25.44,4666.47,23.7,-47.69,3.27
2025-04-29 17:51:45.292,317.58,-34.62,44.89,4680.92,23.7,-47.69,3.27
2025-04-29 17:51:45.851,318.14,-28.1,51.23,4691.7,23.71,-45.44,3.27
2025-04-29 17:51:46.412,318.70,-32.63,25.26,4693.02,23.75,-41.47,3.27
2025-04-29 17:51:46.971,319.26,-30.07,17.16,4718.52,23.72,-38.89,3.27
2025-04-29 17:51:47.537,319.82,-23.21,10.59,4726.94,23.7,-38.89,3.26
2025-04-29 17:51:48.092,320.38,-28.31,9.25,4730.97,23.69,-36.47,3.24
2025-04-29 17:51:48.660,320.95,-18.64,-12.08,4748.28,23.67,-32.0,3.26
2025-04-29 17:51:49.226,321.51,-3.56,-14.66,4760.02,23.64,-30.03,3.27
2025-04-29 17:51:49.784,322.07,10.34,0.68,4767.19,23.64,-30.03,3.26
2025-04-29 17:51:50.338,322.63,8.03,1.09,4774.44,23.63,-28.15,3.27
2025-04-29 17:51:50.897,323.18,-12.37,-2.22,4787.23,23.61,-24.75,3.26
2025-04-29 17:51:51.456,323.74,-14.06,-2.79,4778.85,23.61,-23.17,3.26
2025-04-29 17:51:51.989,324.28,-12.66,-4.7,4781.38,23.6,-23.17,3.26
2025-04-29 17:51:52.503,324.79,-13.11,-4.35,4788.13,23.59,-21.6,3.27
2025-04-29 17:51:53.062,325.35,-15.99,-3.24,4794.9,23.59,-20.12,3.27
2025-04-29 17:51:53.611,325.90,-16.49,-8.54,4799.74,23.59,-18.75,3.26
2025-04-29 17:51:54.176,326.46,-9.01,-9.71,4813.4,23.58,-17.46,3.27
2025-04-29 17:51:54.729,327.02,-13.09,-16.88,4820.8,23.58,-16.25,3.27
2025-04-29 17:51:55.295,327.58,-11.98,-11.9,4833.13,23.57,-15.16,3.24
2025-04-29 17:51:55.848,328.14,-8.04,-10.38,4884.84,23.55,-14.18,3.27
2025-04-29 17:51:56.411,328.70,-10.78,9.4,4911.43,23.53,-13.2,3.27
2025-04-29 17:51:56.968,329.26,-8.46,17.7,4912.42,23.49,-12.27,3.27
2025-04-29 17:51:57.531,329.82,-16.29,11.87,4905.21,23.47,-11.45,3.24
2025-04-29 17:51:58.095,330.38,-9.28,7.05,4921.55,23.45,-10.64,3.27
2025-04-29 17:51:58.623,330.91,-28.46,3.09,4915.49,23.42,-9.88,3.27
2025-04-29 17:51:59.127,331.41,-54.34,11.52,4904.38,23.38,-9.22,3.26
2025-04-29 17:51:59.697,331.98,-6.17,9.78,4908.56,23.36,-8.56,3.27
2025-04-29 17:52:00.266,332.55,-9.91,0.51,4909.67,23.36,-8.11,3.27
2025-04-29 17:52:00.816,333.10,-6.95,-6.26,4908.56,23.35,-7.66,3.27
2025-04-29 17:52:01.373,333.66,-8.02,-6.43,4920.98,23.36,-7.21,3.26
2025-04-29 17:52:01.938,334.22,-8.07,-11.06,4934.37,23.37,-6.83,3.27
2025-04-29 17:52:02.489,334.78,-13.34,-2.64,4942.27,23.38,-6.46,3.26
2025-04-29 17:52:03.047,335.33,-27.44,12.09,4948.82,23.37,-5.96,3.27
2025-04-29 17:52:03.606,335.89,-42.59,-3.15,4924.47,23.36,-5.64,3.27
2025-04-29 17:52:04.164,336.45,-52.83,-18.09,4956.47,23.35,-5.39,3.26
2025-04-29 17:52:04.744,337.03,-15.01,6.42,4955.86,23.33,-4.94,3.26
2025-04-29 17:52:05.296,337.58,10.21,-18.85,4960.23,23.32,-4.71,3.23
2025-04-29 17:52:05.853,338.14,3.01,8.47,4954.88,23.33,-4.4,3.24
2025-04-29 17:52:06.413,338.70,-5.03,21.87,4954.8,23.31,-4.19,3.26
2025-04-29 17:52:06.964,339.25,-20.57,15.75,4946.35,23.32,-4.05,3.26
2025-04-29 17:52:07.524,339.81,-43.39,18.34,4943.91,23.33,-4.0,3.27
2025-04-29 17:52:08.082,340.37,-55.85,5.26,4967.6,23.34,-3.84,3.27
2025-04-29 17:52:08.641,340.93,-53.44,6.67,4965.13,23.34,-3.67,3.27
2025-04-29 17:52:09.204,341.49,-44.75,9.56,4960.37,23.35,-3.53,3.26
2025-04-29 17:52:09.762,342.05,-63.14,-5.02,4966.82,23.38,-3.5,3.27
2025-04-29 17:52:10.321,342.61,-80.1,1.48,4951.69,23.38,-3.48,3.26
2025-04-29 17:52:10.847,343.13,-108.41,-12.25,4948.08,23.38,-3.37,3.27
2025-04-29 17:52:11.406,343.69,-135.3,-46.28,4929.23,23.43,-4.89,3.26
2025-04-29 17:52:11.924,344.21,-113.43,-13.22,4964.74,23.48,-4.98,3.26
2025-04-29 17:52:12.482,344.77,-83.65,-0.54,5003.57,23.49,-4.65,3.27
2025-04-29 17:52:13.042,345.33,-87.2,4.81,5002.42,23.51,-4.42,3.26
2025-04-29 17:52:13.603,345.89,-88.31,-10.93,5001.71,23.5,-4.29,3.27
2025-04-29 17:52:14.162,346.45,-76.99,3.55,5014.75,23.51,-4.04,3.25
2025-04-29 17:52:14.722,347.01,-69.57,4.89,5024.92,23.51,-3.79,3.27
2025-04-29 17:52:15.280,347.57,-72.62,5.99,5030.81,23.53,-3.54,3.26
2025-04-29 17:52:15.841,348.13,-69.54,5.3,5037.77,23.51,-3.33,3.26
2025-04-29 17:52:16.402,348.69,-71.35,5.82,5043.53,23.5,-3.1,3.23
2025-04-29 17:52:17.004,349.29,-73.64,6.1,5052.89,23.49,-2.92,3.26
2025-04-29 17:52:17.520,349.81,-60.89,5.87,5060.43,23.5,-2.75,3.26
2025-04-29 17:52:18.079,350.37,-69.4,8.52,5066.97,23.51,-2.63,3.24
2025-04-29 17:52:18.643,350.93,-69.85,7.65,5074.61,23.52,-2.45,3.26
2025-04-29 17:52:19.200,351.49,-73.37,7.67,5082.78,23.53,-2.33,3.26
2025-04-29 17:52:19.761,352.05,-64.9,6.38,5093.27,23.54,-2.2,3.26
2025-04-29 17:52:20.318,352.60,-43.31,11.78,5107.93,23.54,-1.97,3.26
2025-04-29 17:52:20.879,353.17,-24.01,13.14,5115.25,23.52,-1.79,3.26
2025-04-29 17:52:21.437,353.72,-16.87,20.99,5125.2,23.5,-1.79,3.22
2025-04-29 17:52:22.000,354.29,-19.61,24.43,5134.44,23.48,-1.39,3.24
2025-04-29 17:52:22.559,354.85,-21.52,22.03,5142.05,23.49,-1.25,3.33
2025-04-29 17:52:23.117,355.40,-9.35,12.41,5148.59,23.47,-1.06,3.26
2025-04-29 17:52:23.676,355.96,-10.91,9.95,5156.47,23.46,-1.06,3.23
2025-04-29 17:52:24.241,356.53,-9.43,10.1,5167.09,23.43,-0.71,3.26
2025-04-29 17:52:24.773,357.06,-9.62,10.0,5173.77,23.4,-0.58,3.26
2025-04-29 17:52:25.286,357.57,-8.55,10.23,5181.09,23.37,-0.44,3.31
2025-04-29 17:52:25.839,358.13,-8.5,9.92,5187.81,23.34,-0.44,3.25
2025-04-29 17:52:26.395,358.68,-8.5,9.88,5194.39,23.31,-0.31,3.27
2025-04-29 17:52:26.961,359.25,-8.62,9.86,5204.02,23.27,-0.1,3.26
2025-04-29 17:52:27.516,359.80,-8.67,9.84,5210.57,23.24,-0.09,3.23
2025-04-29 17:52:28.076,360.36,-8.44,9.88,5217.24,23.22,-0.09,3.22
2025-04-29 17:52:28.634,360.92,-8.78,9.9,5223.54,23.21,-0.08,3.25
2025-04-29 17:52:29.203,361.49,-8.41,9.85,5233.02,23.18,-0.04,3.29
2025-04-29 17:52:29.756,362.04,-8.49,9.95,5239.62,23.18,-0.02,3.24
2025-04-29 17:52:30.315,362.60,-8.44,9.9,5246.2,23.18,-0.02,3.25
2025-04-29 17:52:30.876,363.16,-9.29,9.88,5252.68,23.17,-0.01,3.27
2025-04-29 17:52:31.437,363.72,-8.54,9.88,5259.08,23.15,-0.01,3.26
2025-04-29 17:52:31.992,364.28,-8.16,9.85,5268.9,23.13,0.02,3.26
2025-04-29 17:52:32.556,364.84,-8.74,9.9,5275.06,23.11,0.03,3.25
2025-04-29 17:52:33.113,365.40,-8.66,9.94,5281.79,23.1,0.02,3.24
2025-04-29 17:52:33.676,365.96,-9.45,9.95,5288.43,23.08,0.04,3.25
2025-04-29 17:52:34.233,366.52,-8.35,10.01,5297.97,23.06,0.04,3.25
2025-04-29 17:52:34.797,367.08,-8.5,9.92,5304.65,23.06,0.07,3.24
2025-04-29 17:52:35.352,367.64,-8.05,9.88,5311.28,23.03,0.11,3.26
2025-04-29 17:52:35.911,368.20,-8.28,9.93,5318.07,23.02,0.12,3.24
2025-04-29 17:52:36.474,368.76,-7.91,9.97,5327.74,23.0,0.12,3.27
2025-04-29 17:52:37.033,369.32,-8.34,9.93,5334.13,22.98,0.15,3.24
2025-04-29 17:52:37.595,369.88,-7.83,9.99,5340.76,22.97,0.16,3.24
2025-04-29 17:52:38.151,370.44,-8.36,9.98,5347.01,22.95,0.15,3.26
2025-04-29 17:52:38.725,371.01,-8.26,9.98,5356.53,22.94,0.15,3.22
2025-04-29 17:52:39.282,371.57,-8.1,9.97,5363.04,22.94,0.18,3.25
2025-04-29 17:52:39.834,372.12,-8.08,9.94,5369.69,22.93,0.18,3.26
2025-04-29 17:52:40.389,372.68,-8.04,9.95,5376.08,22.92,0.19,3.26
2025-04-29 17:52:40.949,373.24,-7.9,9.88,5382.53,22.92,0.26,3.25
2025-04-29 17:52:41.512,373.80,-8.08,9.92,5392.3,22.9,0.29,3.25
2025-04-29 17:52:42.074,374.36,-8.42,9.99,5398.77,22.89,0.31,3.26
2025-04-29 17:52:42.632,374.92,-8.19,10.07,5405.25,22.89,0.35,3.25
2025-04-29 17:52:43.190,375.48,-8.23,10.03,5411.87,22.88,0.36,3.26
2025-04-29 17:52:43.752,376.04,-8.39,9.95,5421.57,22.87,0.38,3.26
2025-04-29 17:52:44.310,376.60,-8.33,9.97,5428.0,22.87,0.41,3.26
2025-04-29 17:52:44.871,377.16,-7.88,9.93,5434.9,22.86,0.42,3.26
2025-04-29 17:52:45.426,377.71,-7.84,9.94,5441.38,22.84,0.41,3.26
2025-04-29 17:52:46.002,378.29,-7.85,9.96,5451.05,22.84,0.44,3.27
2025-04-29 17:52:46.551,378.84,-8.23,9.92,5457.7,22.83,0.45,3.25
2025-04-29 17:52:47.107,379.39,-8.88,10.49,5466.04,22.84,0.44,3.26
2025-04-29 17:52:47.667,379.95,-16.36,7.98,5467.84,22.83,0.4,3.26
2025-04-29 17:52:48.231,380.52,-12.15,10.41,5471.74,22.84,0.39,3.26
2025-04-29 17:52:48.787,381.07,-32.28,6.57,5467.92,22.87,0.31,3.24
2025-04-29 17:52:49.348,381.63,-67.16,2.76,5476.3,22.88,0.21,3.26
2025-04-29 17:52:49.906,382.19,-71.39,6.6,5482.8,22.89,0.18,3.26
2025-04-29 17:52:50.463,382.75,-70.94,8.14,5489.95,22.89,0.02,3.31
2025-04-29 17:52:51.028,383.31,-77.37,-3.46,5490.37,22.93,-0.21,3.26
2025-04-29 17:52:51.595,383.88,-67.48,2.16,5489.5,22.98,-0.42,3.25
2025-04-29 17:52:52.145,384.43,-49.1,-12.75,5493.22,23.0,-0.55,3.26
2025-04-29 17:52:52.695,384.98,3.27,-11.43,5487.62,23.0,-0.57,3.26
2025-04-29 17:52:53.255,385.54,34.22,-20.27,5495.56,23.01,-0.51,3.25
2025-04-29 17:52:53.797,386.08,16.01,-29.96,5509.8,23.0,-0.47,3.25
2025-04-29 17:52:54.364,386.65,13.81,-15.65,5515.27,22.99,-0.5,3.24
2025-04-29 17:52:54.917,387.20,16.21,-14.78,5516.75,22.99,-0.48,3.25
2025-04-29 17:52:55.484,387.77,20.34,-2.33,5517.06,22.99,-0.54,3.24
2025-04-29 17:52:56.036,388.32,8.73,13.11,5514.89,22.98,-0.57,3.25
2025-04-29 17:52:56.596,388.88,13.22,15.0,5516.91,22.98,-0.54,3.25
2025-04-29 17:52:57.165,389.45,19.57,22.45,5519.69,22.98,-0.54,3.24
2025-04-29 17:52:57.718,390.01,29.53,22.43,5526.97,22.99,-0.5,3.25
2025-04-29 17:52:58.278,390.56,43.35,10.99,5545.5,23.0,-0.44,3.26
2025-04-29 17:52:58.879,391.17,56.81,24.87,5551.02,22.99,-0.4,3.24
2025-04-29 17:52:59.454,391.74,51.83,15.52,5554.09,22.99,-0.38,3.26
2025-04-29 17:52:59.957,392.24,43.27,13.42,5568.15,22.98,-0.32,3.25
2025-04-29 17:53:00.524,392.81,47.87,3.08,5587.18,22.97,-0.27,3.26
2025-04-29 17:53:01.053,393.34,41.14,10.54,5592.46,22.99,-0.28,3.23
2025-04-29 17:53:01.629,393.92,20.49,13.29,5594.34,22.99,-0.23,3.26
2025-04-29 17:53:02.195,394.48,8.27,13.48,5597.94,22.99,-0.23,3.21
2025-04-29 17:53:02.740,395.03,-1.24,16.71,5602.48,23.0,-0.28,3.25
2025-04-29 17:53:03.305,395.59,-9.4,9.96,5611.35,23.0,-0.37,3.26
2025-04-29 17:53:03.862,396.15,-16.64,1.6,5622.16,22.99,-0.48,3.25
2025-04-29 17:53:04.423,396.71,-11.15,3.04,5641.63,22.98,-0.66,3.25
2025-04-29 17:53:04.978,397.26,-30.91,2.73,5643.17,22.97,-0.8,3.25
2025-04-29 17:53:05.551,397.84,-24.65,4.36,5661.27,22.99,-0.94,3.25
2025-04-29 17:53:06.098,398.39,-35.85,-7.53,5653.42,23.02,-1.04,3.29
2025-04-29 17:53:06.616,398.90,-28.07,8.69,5649.43,23.04,-1.14,3.26
2025-04-29 17:53:07.179,399.47,-112.88,43.61,5673.26,23.05,-1.15,3.26
2025-04-29 17:53:07.739,400.03,-56.46,45.85,5678.27,23.04,-1.15,3.25
2025-04-29 17:53:08.301,400.59,0.01,57.11,5712.49,23.08,-7.98,3.26
2025-04-29 17:53:08.856,401.14,-17.06,12.63,5721.36,23.08,-7.57,3.25
2025-04-29 17:53:09.420,401.71,-16.57,18.06,5707.33,23.09,-7.22,3.24
2025-04-29 17:53:09.976,402.26,-20.48,13.77,5714.7,23.09,-7.22,3.25
2025-04-29 17:53:10.538,402.82,-39.58,24.78,5728.9,23.11,-6.45,3.25
2025-04-29 17:53:11.096,403.38,-33.84,-1.56,5728.71,23.12,-6.17,3.24
2025-04-29 17:53:11.663,403.95,-13.63,35.76,5762.37,23.12,-5.79,3.25
2025-04-29 17:53:12.223,404.51,-3.74,26.0,5771.71,23.13,-5.79,3.24
2025-04-29 17:53:12.786,405.07,-1.94,46.08,5784.93,23.16,-5.29,3.25
2025-04-29 17:53:13.339,405.63,1.85,26.23,5788.16,23.19,-5.05,3.25
2025-04-29 17:53:13.894,406.18,2.81,4.01,5800.5,23.18,-4.77,3.25
2025-04-29 17:53:14.458,406.75,-16.27,-10.04,5812.26,23.18,-4.77,3.25
2025-04-29 17:53:15.013,407.30,-18.88,1.88,5816.7,23.18,-4.5,3.25
2025-04-29 17:53:15.576,407.86,-21.92,-6.88,5837.42,23.19,-4.03,3.25
2025-04-29 17:53:16.138,408.42,-15.44,-3.18,5849.31,23.17,-3.79,3.24
2025-04-29 17:53:16.695,408.98,-17.48,-5.16,5854.15,23.17,-3.79,3.25
2025-04-29 17:53:17.259,409.55,-23.38,-21.19,5859.91,23.17,-3.64,3.25
2025-04-29 17:53:17.818,410.10,-25.79,-39.88,5873.71,23.16,-3.23,3.23
2025-04-29 17:53:18.374,410.66,-2.53,28.67,5886.37,23.16,-3.05,3.31
2025-04-29 17:53:18.935,411.22,-17.98,4.5,5886.47,23.16,-3.05,3.24
2025-04-29 17:53:19.493,411.78,-19.06,0.76,5903.74,23.16,-2.89,3.24
2025-04-29 17:53:20.066,412.35,-15.97,13.34,5924.8,23.15,-2.58,3.25
2025-04-29 17:53:20.615,412.90,-23.46,0.2,5932.59,23.14,-2.44,3.25
2025-04-29 17:53:21.189,413.48,-12.2,13.14,5939.27,23.13,-2.44,3.25
2025-04-29 17:53:21.733,414.02,-8.13,21.71,5930.71,23.13,-2.29,3.24
2025-04-29 17:53:22.293,414.58,-15.37,11.5,5932.05,23.12,-2.09,3.26
2025-04-29 17:53:22.856,415.14,-17.87,26.12,5919.95,23.11,-2.1,3.26
2025-04-29 17:53:23.410,415.70,-18.71,10.24,5917.99,23.12,-2.1,3.26
2025-04-29 17:53:23.973,416.26,-15.81,-1.53,5924.61,23.13,-2.1,3.24
2025-04-29 17:53:24.528,416.82,-24.68,-3.87,5939.24,23.13,-2.04,3.24
2025-04-29 17:53:25.089,417.38,-20.57,11.82,5963.51,23.14,-1.86,3.25
2025-04-29 17:53:25.649,417.94,-21.41,-17.16,5979.1,23.12,-1.86,3.25
2025-04-29 17:53:26.213,418.50,-18.44,7.19,5987.78,23.12,-1.76,3.32
2025-04-29 17:53:26.772,419.06,-7.23,-13.17,5991.79,23.1,-1.71,3.24
2025-04-29 17:53:27.336,419.62,-13.36,-1.43,6005.96,23.07,-1.52,3.26
2025-04-29 17:53:27.902,420.19,-11.56,0.94,6015.45,23.06,-1.52,3.25
2025-04-29 17:53:28.452,420.74,-9.2,1.99,6018.25,23.04,-1.42,3.22
2025-04-29 17:53:29.007,421.29,-12.99,8.97,6007.94,23.03,-1.36,3.25
2025-04-29 17:53:29.567,421.85,-24.45,4.77,5993.38,23.02,-1.32,3.23
2025-04-29 17:53:30.132,422.42,-31.51,0.02,5993.34,23.04,-1.32,3.24
2025-04-29 17:53:30.687,422.97,-23.87,-4.66,5998.86,23.04,-1.35,3.24
2025-04-29 17:53:31.250,423.54,-13.91,-8.56,6007.17,23.05,-1.35,3.25
2025-04-29 17:53:31.817,424.10,-30.57,4.55,6007.26,23.05,-1.44,3.2
2025-04-29 17:53:32.366,424.65,-33.92,3.88,6020.59,23.07,-1.44,3.25
2025-04-29 17:53:32.926,425.21,-46.04,19.06,6034.47,23.08,-1.58,3.25
2025-04-29 17:53:33.486,425.77,-38.52,15.41,6036.39,23.1,-1.75,3.25
2025-04-29 17:53:34.048,426.34,-30.67,18.37,6040.7,23.12,-1.82,3.21
2025-04-29 17:53:34.608,426.90,-31.76,9.08,6053.08,23.13,-1.9,3.25
2025-04-29 17:53:35.170,427.46,-29.54,-21.79,6076.44,23.14,-1.88,3.26
2025-04-29 17:53:35.727,428.01,-18.5,4.75,6089.63,23.13,-1.75,3.25
2025-04-29 17:53:36.286,428.57,-17.21,4.34,6100.07,23.13,-1.67,3.24
2025-04-29 17:53:36.845,429.13,-9.28,9.63,6120.59,23.11,-1.59,3.25
2025-04-29 17:53:37.412,429.70,-1.09,14.13,6123.01,23.1,-1.52,3.27
2025-04-29 17:53:37.971,430.26,-4.74,0.79,6108.33,23.08,-1.42,3.22
2025-04-29 17:53:38.530,430.82,-0.4,24.93,6092.58,23.09,-1.37,3.24
2025-04-29 17:53:39.084,431.37,-11.04,21.15,6074.89,23.11,-1.31,3.23
2025-04-29 17:53:39.643,431.93,-8.13,14.18,6079.51,23.12,-1.3,3.22
2025-04-29 17:53:40.204,432.49,-0.15,-6.62,6111.27,23.11,-1.29,3.22
2025-04-29 17:53:40.763,433.05,-8.98,2.24,6139.26,23.11,-1.23,3.24
2025-04-29 17:53:41.326,433.61,-11.1,1.93,6154.35,23.11,-1.21,3.17
2025-04-29 17:53:41.882,434.17,-13.58,15.61,6167.37,23.12,-1.15,3.24
2025-04-29 17:53:42.442,434.73,-13.46,6.28,6161.75,23.12,-1.1,3.24
2025-04-29 17:53:43.005,435.29,-8.73,-0.44,6170.01,23.12,-1.05,3.24
2025-04-29 17:53:43.562,435.85,-8.87,-1.67,6180.11,23.12,-0.99,3.24
2025-04-29 17:53:44.125,436.41,-8.28,8.52,6187.63,23.12,-0.95,3.24
2025-04-29 17:53:44.682,436.97,-7.27,2.16,6194.25,23.12,-0.92,3.21
2025-04-29 17:53:45.245,437.53,-10.9,15.5,6197.58,23.13,-0.91,3.24
2025-04-29 17:53:45.799,438.09,-19.48,27.45,6194.42,23.14,-0.99,3.24
2025-04-29 17:53:46.364,438.65,-20.67,22.91,6202.08,23.16,-1.02,3.25
2025-04-29 17:53:46.890,439.18,-21.47,33.84,6204.18,23.18,-1.05,3.24
2025-04-29 17:53:47.406,439.69,-27.28,19.19,6208.9,23.19,-0.97,3.24
2025-04-29 17:53:47.959,440.25,-29.52,22.23,6214.91,23.17,-0.93,3.25
2025-04-29 17:53:48.532,440.82,-30.48,27.89,6223.97,23.16,-0.92,3.21
2025-04-29 17:53:49.079,441.37,-34.57,6.7,6219.67,23.14,-0.78,3.23
2025-04-29 17:53:49.638,441.93,-43.42,8.73,6249.45,23.11,-0.85,3.29
2025-04-29 17:53:50.198,442.48,-39.49,0.36,6260.88,23.11,-0.92,3.24
2025-04-29 17:53:50.764,443.05,-36.57,19.23,6270.75,23.11,-1.01,3.24
2025-04-29 17:53:51.316,443.60,-35.82,14.75,6273.72,23.12,-1.06,3.22
2025-04-29 17:53:51.876,444.16,-38.01,2.71,6278.55,23.12,-1.1,3.24
2025-04-29 17:53:52.437,444.72,-34.82,9.02,6286.1,23.12,-1.14,3.21
2025-04-29 17:53:53.001,445.29,-33.28,11.0,6291.86,23.11,-1.14,3.23
2025-04-29 17:53:53.557,445.84,-38.79,13.06,6304.7,23.11,-1.2,3.24
2025-04-29 17:53:54.119,446.41,-35.98,15.06,6314.53,23.13,-1.28,3.24
2025-04-29 17:53:54.676,446.96,-35.48,23.37,6321.49,23.13,-1.3,3.23
2025-04-29 17:53:55.235,447.52,-37.98,20.67,6321.59,23.13,-1.41,3.21
2025-04-29 17:53:55.799,448.09,-42.82,20.35,6323.98,23.14,-1.57,3.24
2025-04-29 17:53:56.359,448.65,-41.02,24.98,6334.58,23.16,-1.76,3.24
2025-04-29 17:53:56.916,449.20,-38.76,21.36,6345.54,23.18,-1.88,3.24
2025-04-29 17:53:57.477,449.76,-38.83,23.26,6349.71,23.18,-1.94,3.23
2025-04-29 17:53:58.033,450.32,-38.13,24.48,6354.01,23.2,-2.05,3.23
2025-04-29 17:53:58.597,450.88,-36.38,21.36,6363.88,23.22,-2.12,3.24
2025-04-29 17:53:59.157,451.44,-35.08,26.85,6375.92,23.23,-2.17,3.23
2025-04-29 17:53:59.714,452.00,-30.02,13.55,6379.68,23.25,-2.22,3.21
2025-04-29 17:54:00.273,452.56,-27.48,40.73,6383.67,23.24,-2.34,3.19
2025-04-29 17:54:00.833,453.12,-36.34,29.83,6380.49,23.24,-2.28,3.24
2025-04-29 17:54:01.450,453.74,-38.33,33.06,6385.41,23.2,-2.26,3.22
2025-04-29 17:54:01.952,454.24,-38.22,37.99,6396.29,23.17,-2.19,3.24
2025-04-29 17:54:02.513,454.80,-41.99,26.71,6396.41,23.15,-2.18,3.19
2025-04-29 17:54:03.071,455.36,-39.06,20.75,6404.92,23.15,-2.27,3.24
2025-04-29 17:54:03.635,455.92,-32.88,27.15,6425.81,23.18,-2.31,3.24
2025-04-29 17:54:04.196,456.48,-29.18,40.26,6436.72,23.19,-2.37,3.24
2025-04-29 17:54:04.755,457.04,-31.12,27.96,6437.43,23.19,-2.52,3.23
2025-04-29 17:54:05.311,457.60,-34.61,32.59,6436.44,23.2,-2.48,3.24
2025-04-29 17:54:05.872,458.16,-35.25,36.61,6446.05,23.17,-2.45,3.24
2025-04-29 17:54:06.431,458.72,-39.07,21.43,6442.28,23.15,-2.6,3.23
2025-04-29 17:54:06.994,459.28,-37.73,13.3,6450.99,23.16,-2.68,3.24
2025-04-29 17:54:07.551,459.84,-36.11,24.39,6465.15,23.17,-2.75,3.24
2025-04-29 17:54:08.110,460.40,-35.47,28.59,6471.25,23.2,-2.75,3.24
2025-04-29 17:54:08.670,460.96,-35.86,26.4,6480.1,23.23,-2.9,3.24
2025-04-29 17:54:09.230,461.52,-35.74,22.08,6486.45,23.24,-2.94,3.23
2025-04-29 17:54:09.792,462.08,-36.8,25.3,6489.27,23.28,-3.01,3.25
2025-04-29 17:54:10.350,462.64,-37.87,21.46,6496.97,23.28,-3.01,3.22
2025-04-29 17:54:10.910,463.20,-35.17,23.35,6511.04,23.31,-3.07,3.24
2025-04-29 17:54:11.468,463.75,-34.25,17.53,6516.28,23.33,-3.11,3.25
2025-04-29 17:54:12.030,464.32,-33.67,25.02,6524.6,23.34,-3.13,3.23
2025-04-29 17:54:12.590,464.88,-30.23,26.98,6532.83,23.36,-3.13,3.23
2025-04-29 17:54:13.149,465.44,-26.22,24.01,6544.33,23.39,-3.09,3.24
2025-04-29 17:54:13.708,466.00,-25.04,21.65,6552.6,23.41,-2.97,3.29
2025-04-29 17:54:14.271,466.56,-26.83,16.35,6558.46,23.42,-2.86,3.23
2025-04-29 17:54:14.828,467.12,-24.77,14.24,6573.51,23.42,-2.86,3.24
2025-04-29 17:54:15.392,467.68,-17.91,17.37,6609.92,23.4,-2.58,3.23
2025-04-29 17:54:15.948,468.24,-15.86,19.59,6622.03,23.39,-2.41,3.23
2025-04-29 17:54:16.512,468.80,-22.03,13.94,6630.7,23.37,-2.23,3.23
2025-04-29 17:54:17.078,469.36,-14.05,24.48,6635.39,23.36,-2.23,3.23
2025-04-29 17:54:17.627,469.91,-15.47,27.3,6634.19,23.34,-2.1,3.24
2025-04-29 17:54:18.186,470.47,-25.6,33.98,6622.72,23.37,-1.97,3.23
2025-04-29 17:54:18.749,471.04,-30.49,25.44,6623.1,23.39,-1.93,3.24
2025-04-29 17:54:19.307,471.59,-28.57,31.65,6631.73,23.39,-1.93,3.23
2025-04-29 17:54:19.865,472.15,-27.55,24.54,6643.24,23.4,-1.93,3.23
2025-04-29 17:54:20.428,472.71,-21.81,29.21,6664.38,23.39,-1.87,3.23
2025-04-29 17:54:20.988,473.27,-19.78,30.74,6673.31,23.39,-1.76,3.23
2025-04-29 17:54:21.546,473.83,-21.72,30.63,6675.4,23.4,-1.76,3.23
2025-04-29 17:54:22.104,474.39,-24.64,30.44,6676.08,23.39,-1.67,3.23
2025-04-29 17:54:22.664,474.95,-27.1,31.61,6681.76,23.42,-1.64,3.18
2025-04-29 17:54:23.228,475.52,-29.14,30.53,6685.22,23.44,-1.62,3.21
2025-04-29 17:54:23.784,476.07,-32.1,28.67,6687.46,23.47,-1.62,3.25
2025-04-29 17:54:24.343,476.63,-39.75,25.18,6679.0,23.49,-1.64,3.23
2025-04-29 17:54:24.902,477.19,-51.19,16.61,6663.85,23.49,-1.35,3.24
2025-04-29 17:54:25.462,477.75,-51.6,16.17,6679.84,23.47,-1.21,3.23
2025-04-29 17:54:26.025,478.31,-48.7,14.61,6687.23,23.46,-1.21,3.23
2025-04-29 17:54:26.584,478.87,-47.79,21.05,6699.71,23.42,-1.03,3.23
2025-04-29 17:54:27.144,479.43,-42.24,20.87,6710.57,23.41,-0.91,3.23
2025-04-29 17:54:27.701,479.99,-32.25,17.82,6741.18,23.43,-0.94,3.23
2025-04-29 17:54:28.262,480.55,-23.17,39.52,6757.27,23.45,-0.94,3.24
2025-04-29 17:54:28.826,481.11,-28.91,22.43,6754.83,23.48,-0.99,3.21
2025-04-29 17:54:29.381,481.67,-33.28,19.53,6749.59,23.48,-0.98,3.22
2025-04-29 17:54:29.942,482.23,-37.52,22.58,6755.53,23.5,-1.1,3.22
2025-04-29 17:54:30.500,482.79,-37.74,14.48,6758.99,23.51,-1.1,3.23
2025-04-29 17:54:31.060,483.35,-39.85,12.56,6772.18,23.52,-1.17,3.23
2025-04-29 17:54:31.623,483.91,-43.21,18.32,6777.47,23.51,-1.17,3.24
2025-04-29 17:54:32.182,484.47,-34.65,15.53,6790.2,23.53,-1.25,3.26
2025-04-29 17:54:32.750,485.04,-35.79,17.52,6811.87,23.54,-1.25,3.24
2025-04-29 17:54:33.306,485.59,-32.24,17.99,6816.68,23.54,-1.25,3.23
2025-04-29 17:54:33.874,486.16,-19.43,18.86,6815.09,23.54,-1.25,3.24
2025-04-29 17:54:34.422,486.71,-12.61,11.07,6828.68,23.53,-1.21,3.2
2025-04-29 17:54:34.983,487.27,-12.84,12.6,6847.29,23.5,-1.21,3.23
2025-04-29 17:54:35.541,487.83,-21.05,26.68,6848.21,23.51,-1.22,3.23
2025-04-29 17:54:36.110,488.40,-13.95,54.07,6862.02,23.5,-1.21,3.23
2025-04-29 17:54:36.674,488.96,-0.48,57.38,6877.12,23.48,-1.27,3.24
2025-04-29 17:54:37.218,489.51,-30.49,43.52,6854.98,23.48,-1.27,3.23
2025-04-29 17:54:37.780,490.07,-17.2,17.58,6838.74,23.47,-1.38,3.23
2025-04-29 17:54:38.341,490.63,-37.62,20.47,6849.46,23.5,-1.54,3.23
2025-04-29 17:54:38.898,491.18,-36.69,12.36,6854.08,23.51,-1.84,3.23
2025-04-29 17:54:39.461,491.75,-51.74,65.12,6881.32,23.52,-1.9,3.23
2025-04-29 17:54:40.016,492.30,-129.25,34.2,6882.59,23.51,-2.16,3.23
2025-04-29 17:54:40.580,492.87,-123.36,7.5,6889.48,23.51,-2.33,3.24
2025-04-29 17:54:41.140,493.43,-101.61,0.43,6875.94,23.49,-2.19,3.23
2025-04-29 17:54:41.697,493.98,-81.51,-23.57,6898.63,23.48,-2.14,3.28
2025-04-29 17:54:42.236,494.52,-86.7,8.4,6895.96,23.47,-2.06,3.19
2025-04-29 17:54:42.741,495.03,-101.85,25.06,6904.51,23.5,-2.27,3.23
2025-04-29 17:54:43.296,495.58,-70.81,35.12,6917.52,23.53,-0.34,3.23
2025-04-29 17:54:43.856,496.14,-55.13,32.06,6928.95,23.55,-0.79,3.23
2025-04-29 17:54:44.417,496.70,-50.06,36.22,6939.41,23.56,-1.24,3.23
2025-04-29 17:54:44.980,497.27,-46.3,40.35,6951.25,23.56,-1.69,3.23
2025-04-29 17:54:45.538,497.82,-43.36,39.58,6962.63,23.56,-2.05,3.24
2025-04-29 17:54:46.094,498.38,-41.26,36.7,6973.59,23.56,-2.14,3.23
