Timestamp,Runtime (s),Pitch,Roll,Yaw,Temp,Alt,Battery
2025-04-29 17:29:49.044,0.58,-9.44,1.97,77.81,21.97,-0.66,3.44
2025-04-29 17:29:49.594,1.13,-9.25,2.12,78.16,21.98,-0.67,3.46
2025-04-29 17:29:50.103,1.64,-9.81,2.15,79.22,21.98,-0.66,3.44
2025-04-29 17:29:50.702,2.24,-8.47,2.09,79.41,21.98,-0.67,3.44
2025-04-29 17:29:51.373,2.91,-9.04,2.03,80.4,21.98,-0.67,3.44
2025-04-29 17:29:51.890,3.43,-8.9,1.88,81.24,21.99,-0.68,3.43
2025-04-29 17:29:52.433,3.97,-8.57,1.89,82.34,21.99,-0.7,3.44
2025-04-29 17:29:52.948,4.49,-9.19,1.85,83.14,22.0,-0.69,3.44
2025-04-29 17:29:53.474,5.01,-9.37,1.9,83.9,22.0,-0.69,3.45
2025-04-29 17:29:54.003,5.54,-9.79,1.95,84.92,22.01,-0.68,3.44
2025-04-29 17:29:54.569,6.11,-9.92,2.08,85.87,22.01,-0.71,3.43
2025-04-29 17:29:55.191,6.73,-10.11,2.22,86.35,22.02,-0.72,3.44
2025-04-29 17:29:55.746,7.28,-7.48,1.99,87.36,22.01,-0.71,3.45
2025-04-29 17:29:56.316,7.85,-7.32,1.88,87.76,22.03,-0.72,3.44
2025-04-29 17:29:56.826,8.36,-15.83,2.25,87.45,22.03,-0.72,3.44
2025-04-29 17:29:57.390,8.93,-10.66,2.12,88.36,22.04,-0.72,3.45
2025-04-29 17:29:57.953,9.49,-8.28,2.04,89.74,22.05,-0.74,3.48
2025-04-29 17:29:58.461,10.00,-8.73,2.14,90.22,22.04,-0.72,3.44
2025-04-29 17:29:59.007,10.54,-8.88,2.16,90.77,22.04,-0.71,3.44
2025-04-29 17:29:59.580,11.12,-11.4,2.34,92.11,22.03,-0.71,3.44
2025-04-29 17:30:00.152,11.69,-11.12,2.34,93.04,22.05,-0.72,3.43
2025-04-29 17:30:00.716,12.25,-11.2,2.37,94.66,22.05,-0.71,3.44
2025-04-29 17:30:01.314,12.85,-11.2,2.55,95.27,22.06,-0.76,3.43
2025-04-29 17:30:01.925,13.46,-11.24,2.56,96.12,22.06,-0.77,3.44
2025-04-29 17:30:02.530,14.07,-11.87,2.56,96.72,22.06,-0.78,3.44
2025-04-29 17:30:03.092,14.63,-10.12,2.39,97.08,22.07,-0.78,3.42
2025-04-29 17:30:03.605,15.14,-10.69,2.45,98.37,22.08,-0.82,3.39
2025-04-29 17:30:04.142,15.68,-10.82,2.46,98.79,22.08,-0.82,3.5
2025-04-29 17:30:04.651,16.19,-12.48,2.1,98.3,22.08,-0.85,3.44
2025-04-29 17:30:05.225,16.76,-39.41,8.2,104.32,22.1,-0.91,3.4
2025-04-29 17:30:05.726,17.26,-42.12,10.26,106.31,22.11,-0.92,3.44
2025-04-29 17:30:06.254,17.79,-41.36,8.7,106.99,22.12,-0.92,3.45
2025-04-29 17:30:06.828,18.37,-41.15,10.57,109.14,22.13,-0.92,3.44
2025-04-29 17:30:07.429,18.97,-71.85,5.85,104.28,22.17,-0.99,3.46
2025-04-29 17:30:08.068,19.61,-71.51,4.91,104.97,22.2,-0.99,3.44
2025-04-29 17:30:08.584,20.12,-73.0,4.86,105.56,22.22,-0.99,3.43
2025-04-29 17:30:09.141,20.68,-72.33,4.57,106.5,22.24,-1.01,3.44
2025-04-29 17:30:09.739,21.28,-72.26,4.79,107.47,22.29,-1.07,3.43
2025-04-29 17:30:10.284,21.82,-71.1,5.05,108.4,22.31,-1.1,3.44
2025-04-29 17:30:10.852,22.39,-71.11,4.86,109.2,22.33,-1.1,3.43
2025-04-29 17:30:11.382,22.92,-71.25,4.89,110.02,22.35,-1.13,3.37
2025-04-29 17:30:11.950,23.49,-70.25,5.61,111.99,22.37,-1.18,3.44
2025-04-29 17:30:12.472,24.01,-68.27,6.21,113.95,22.38,-1.17,3.44
2025-04-29 17:30:13.031,24.57,-70.37,5.47,113.63,22.39,-1.17,3.44
2025-04-29 17:30:13.547,25.08,-70.7,5.04,113.94,22.4,-1.18,3.44
2025-04-29 17:30:14.122,25.66,-67.96,6.3,115.83,22.43,-1.15,3.45
2025-04-29 17:30:14.680,26.22,-70.63,5.56,115.16,22.44,-1.15,3.43
2025-04-29 17:30:15.247,26.78,-70.4,4.96,115.99,22.48,-1.17,3.45
2025-04-29 17:30:15.802,27.34,-71.16,5.99,119.05,22.49,-1.14,3.43
2025-04-29 17:30:16.357,27.90,-72.13,5.84,118.28,22.51,-1.13,3.43
2025-04-29 17:30:16.973,28.51,-69.98,5.17,119.08,22.55,-1.13,3.43
2025-04-29 17:30:17.519,29.06,-71.74,4.76,119.53,22.56,-1.13,3.43
2025-04-29 17:30:18.063,29.60,-71.75,4.98,120.22,22.58,-1.12,3.44
2025-04-29 17:30:18.668,30.21,-71.33,4.87,121.12,22.6,-1.1,3.44
2025-04-29 17:30:19.210,30.75,-71.1,4.87,122.13,22.64,-1.07,3.43
2025-04-29 17:30:19.759,31.30,-71.56,5.19,122.84,22.64,-1.07,3.42
2025-04-29 17:30:20.347,31.89,-72.11,4.87,123.59,22.68,-1.05,3.45
2025-04-29 17:30:21.005,32.54,-72.1,4.81,124.55,22.71,-1.04,3.43
2025-04-29 17:30:21.575,33.11,-72.07,4.74,125.27,22.72,-1.05,3.44
2025-04-29 17:30:22.120,33.66,-72.03,5.07,126.16,22.73,-1.05,3.43
2025-04-29 17:30:22.628,34.17,-71.94,5.06,126.96,22.75,-1.06,3.43
2025-04-29 17:30:23.191,34.73,-71.71,5.1,127.68,22.79,-1.05,3.44
2025-04-29 17:30:23.701,35.24,-71.85,4.73,128.79,22.83,-1.03,3.44
2025-04-29 17:30:24.205,35.74,-71.99,5.36,129.65,22.84,-1.03,3.44
2025-04-29 17:30:24.705,36.24,-72.56,4.7,130.0,22.86,-1.03,3.38
2025-04-29 17:30:25.278,36.82,-72.55,4.89,131.1,22.88,-1.03,3.43
2025-04-29 17:30:25.844,37.38,-72.03,5.0,131.9,22.9,-1.02,3.44
2025-04-29 17:30:26.344,37.88,-71.68,5.23,132.84,22.93,-1.04,3.38
2025-04-29 17:30:26.905,38.44,-71.38,4.78,133.59,22.95,-1.02,3.39
2025-04-29 17:30:27.457,38.99,-72.1,4.85,134.4,22.97,-0.99,3.44
2025-04-29 17:30:27.972,39.51,-71.94,5.08,135.22,22.99,-0.98,3.37
2025-04-29 17:30:28.525,40.06,-71.48,4.93,136.01,23.0,-0.98,3.42
2025-04-29 17:30:29.064,40.60,-72.0,5.07,136.79,23.03,-0.97,3.44
2025-04-29 17:30:29.632,41.17,-71.59,5.22,137.59,23.04,-0.93,3.45
2025-04-29 17:30:30.192,41.73,-71.53,4.85,137.82,23.06,-0.94,3.42
2025-04-29 17:30:30.769,42.31,-71.01,5.54,139.23,23.08,-0.89,3.43
2025-04-29 17:30:31.341,42.88,-71.33,5.16,140.06,23.08,-0.91,3.37
2025-04-29 17:30:31.944,43.48,-71.7,5.01,140.84,23.09,-0.92,3.45
2025-04-29 17:30:32.490,44.03,-71.37,4.97,141.96,23.13,-0.9,3.43
2025-04-29 17:30:33.012,44.55,-71.82,5.06,142.69,23.14,-0.88,3.45
2025-04-29 17:30:33.533,45.07,-72.42,4.67,143.15,23.16,-0.86,3.44
2025-04-29 17:30:34.110,45.65,-72.32,5.0,144.11,23.18,-0.87,3.43
2025-04-29 17:30:34.669,46.21,-70.84,5.19,144.86,23.22,-0.84,3.44
2025-04-29 17:30:35.178,46.72,-71.29,5.69,145.61,23.23,-0.84,3.44
2025-04-29 17:30:35.695,47.23,-71.9,4.94,146.32,23.25,-0.81,3.44
2025-04-29 17:30:36.225,47.76,-71.61,5.23,147.42,23.28,-0.83,3.43
2025-04-29 17:30:36.782,48.32,-71.11,4.18,147.83,23.3,-0.82,3.43
2025-04-29 17:30:37.363,48.90,-71.83,5.41,148.27,23.33,-0.81,3.43
2025-04-29 17:30:37.897,49.43,-71.75,4.53,148.19,23.34,-0.78,3.43
2025-04-29 17:30:38.452,49.99,-71.08,5.55,149.25,23.34,-0.78,3.43
2025-04-29 17:30:39.040,50.58,-71.57,4.99,150.01,23.36,-0.78,3.43
2025-04-29 17:30:39.579,51.12,-72.26,5.08,150.69,23.39,-0.79,3.42
2025-04-29 17:30:40.092,51.63,-72.11,5.08,151.48,23.41,-0.76,3.44
2025-04-29 17:30:40.654,52.19,-72.21,5.21,152.28,23.42,-0.76,3.47
2025-04-29 17:30:41.220,52.76,-72.06,4.87,152.89,23.45,-0.75,3.43
2025-04-29 17:30:41.730,53.27,-72.58,4.9,153.86,23.48,-0.71,3.45
2025-04-29 17:30:42.297,53.83,-71.89,5.1,154.79,23.5,-0.71,3.42
2025-04-29 17:30:42.871,54.41,-72.11,5.01,155.4,23.51,-0.71,3.42
2025-04-29 17:30:43.429,54.97,-72.02,5.1,156.25,23.53,-0.68,3.44
2025-04-29 17:30:43.977,55.51,-71.78,5.15,157.02,23.56,-0.67,3.43
2025-04-29 17:30:44.477,56.01,-72.78,4.92,157.62,23.59,-0.71,3.44
2025-04-29 17:30:45.010,56.55,-71.61,4.85,158.96,23.59,-0.71,3.43
2025-04-29 17:30:45.567,57.10,-71.3,5.16,159.39,23.62,-0.69,3.44
2025-04-29 17:30:46.128,57.67,-72.42,5.17,160.12,23.64,-0.69,3.42
2025-04-29 17:30:46.700,58.24,-72.33,5.0,161.01,23.66,-0.69,3.43
2025-04-29 17:30:47.249,58.79,-72.48,4.85,162.01,23.68,-0.71,3.42
2025-04-29 17:30:47.808,59.35,-72.71,5.07,162.65,23.71,-0.72,3.43
2025-04-29 17:30:48.334,59.87,-72.39,4.71,163.25,23.73,-0.74,3.44
2025-04-29 17:30:48.848,60.39,-72.16,5.07,163.94,23.75,-0.74,3.44
2025-04-29 17:30:49.405,60.94,-72.55,4.77,164.71,23.77,-0.75,3.43
2025-04-29 17:30:49.964,61.50,-72.49,4.99,165.39,23.79,-0.71,3.43
2025-04-29 17:30:50.502,62.04,-72.64,4.94,166.46,23.82,-0.73,3.44
2025-04-29 17:30:51.009,62.55,-72.71,5.0,167.25,23.85,-0.75,3.43
2025-04-29 17:30:51.562,63.10,-72.49,5.04,168.15,23.87,-0.72,3.43
2025-04-29 17:30:52.066,63.60,-71.98,5.36,168.86,23.89,-0.71,3.4
2025-04-29 17:30:52.609,64.15,-70.55,4.91,169.7,23.91,-0.7,3.42
2025-04-29 17:30:53.159,64.70,-71.41,5.36,170.7,23.92,-0.67,3.45
2025-04-29 17:30:53.721,65.26,-72.18,5.0,171.2,23.94,-0.67,3.42
2025-04-29 17:30:54.279,65.82,-72.68,4.68,172.13,23.96,-0.68,3.44
2025-04-29 17:30:54.840,66.38,-72.78,5.3,173.04,23.98,-0.68,3.44
2025-04-29 17:30:55.413,66.95,-73.11,5.51,173.78,23.99,-0.69,3.43
2025-04-29 17:30:55.958,67.50,-73.02,4.72,174.59,24.02,-0.7,3.44
2025-04-29 17:30:56.515,68.05,-72.83,5.47,175.59,24.04,-0.69,3.43
2025-04-29 17:30:57.020,68.56,-72.6,4.95,176.26,24.06,-0.7,3.44
2025-04-29 17:30:57.559,69.10,-72.58,5.0,177.01,24.08,-0.73,3.42
2025-04-29 17:30:58.184,69.72,-72.71,4.83,177.76,24.09,-0.74,3.44
2025-04-29 17:30:58.756,70.29,-72.75,4.99,178.88,24.12,-0.73,3.43
2025-04-29 17:30:59.315,70.85,-72.86,4.99,179.7,24.14,-0.75,3.43
2025-04-29 17:30:59.881,71.42,-72.83,5.06,180.41,24.17,-0.77,3.43
2025-04-29 17:31:00.434,71.97,-72.8,4.99,181.14,24.19,-0.75,3.42
2025-04-29 17:31:00.997,72.53,-72.79,4.98,181.86,24.22,-0.74,3.43
2025-04-29 17:31:01.559,73.10,-72.75,5.06,183.0,24.24,-0.73,3.44
2025-04-29 17:31:02.121,73.66,-72.82,4.97,183.7,24.27,-0.74,3.43
2025-04-29 17:31:02.648,74.19,-72.9,4.91,184.39,24.29,-0.71,3.42
2025-04-29 17:31:03.155,74.69,-72.77,5.02,185.14,24.3,-0.75,3.43
2025-04-29 17:31:03.712,75.25,-72.64,5.02,185.81,24.32,-0.75,3.4
2025-04-29 17:31:04.285,75.82,-73.63,5.67,186.89,24.36,-0.7,3.43
2025-04-29 17:31:04.844,76.38,-73.95,5.01,187.7,24.38,-0.71,3.44
2025-04-29 17:31:05.396,76.93,-73.01,4.45,188.3,24.39,-0.69,3.43
2025-04-29 17:31:05.925,77.46,-72.79,5.35,189.11,24.41,-0.69,3.44
2025-04-29 17:31:06.438,77.98,-72.97,4.85,189.83,24.42,-0.69,3.44
2025-04-29 17:31:06.991,78.53,-72.9,4.68,190.44,24.44,-0.67,3.43
2025-04-29 17:31:07.553,79.09,-72.86,4.79,191.65,24.49,-0.69,3.43
2025-04-29 17:31:08.116,79.65,-72.84,5.1,192.42,24.5,-0.66,3.43
2025-04-29 17:31:08.674,80.21,-72.93,4.84,193.14,24.5,-0.66,3.44
2025-04-29 17:31:09.243,80.78,-73.01,5.06,193.84,24.53,-0.66,3.42
2025-04-29 17:31:09.803,81.34,-72.8,5.04,195.05,24.58,-0.66,3.44
2025-04-29 17:31:10.353,81.89,-72.76,5.01,195.86,24.61,-0.64,3.43
2025-04-29 17:31:10.917,82.45,-72.71,4.99,196.43,24.61,-0.64,3.43
2025-04-29 17:31:11.474,83.01,-73.14,5.09,197.22,24.61,-0.62,3.43
2025-04-29 17:31:12.030,83.57,-72.85,5.02,198.31,24.64,-0.64,3.43
2025-04-29 17:31:12.594,84.13,-72.66,5.03,199.1,24.67,-0.61,3.43
2025-04-29 17:31:13.151,84.69,-73.09,5.01,199.55,24.68,-0.61,3.44
2025-04-29 17:31:13.712,85.25,-72.33,4.95,200.42,24.69,-0.61,3.44
2025-04-29 17:31:14.278,85.82,-72.58,4.94,201.32,24.68,-0.61,3.43
2025-04-29 17:31:14.832,86.37,-73.18,4.96,202.23,24.67,-0.57,3.45
2025-04-29 17:31:15.389,86.93,-72.21,5.08,203.18,24.67,-0.57,3.44
2025-04-29 17:31:15.960,87.50,-72.71,5.18,203.85,24.68,-0.54,3.43
2025-04-29 17:31:16.521,88.06,-72.53,5.19,204.79,24.71,-0.56,3.37
2025-04-29 17:31:17.072,88.61,-72.52,5.02,205.85,24.75,-0.52,3.43
2025-04-29 17:31:17.637,89.17,-72.68,4.98,206.52,24.75,-0.52,3.44
2025-04-29 17:31:18.190,89.73,-73.14,4.84,207.33,24.76,-0.52,3.44
2025-04-29 17:31:18.751,90.29,-72.64,5.15,208.02,24.76,-0.49,3.44
2025-04-29 17:31:19.314,90.85,-72.93,5.01,209.15,24.8,-0.5,3.45
2025-04-29 17:31:19.870,91.41,-72.72,4.94,209.75,24.82,-0.51,3.44
2025-04-29 17:31:20.425,91.96,-72.57,4.96,210.57,24.84,-0.51,3.4
2025-04-29 17:31:20.985,92.52,-73.1,5.03,211.28,24.86,-0.5,3.42
2025-04-29 17:31:21.550,93.09,-72.84,5.03,212.32,24.89,-0.5,3.43
2025-04-29 17:31:22.107,93.64,-72.96,4.75,213.23,24.89,-0.51,3.44
2025-04-29 17:31:22.668,94.21,-72.2,5.06,213.69,24.89,-0.51,3.42
2025-04-29 17:31:23.234,94.77,-72.68,5.01,214.63,24.9,-0.52,3.42
2025-04-29 17:31:23.785,95.32,-73.41,4.46,215.64,24.89,-0.48,3.44
2025-04-29 17:31:24.345,95.88,-71.66,5.19,216.08,24.91,-0.49,3.43
2025-04-29 17:31:24.906,96.44,-72.1,5.23,217.21,24.92,-0.49,3.44
2025-04-29 17:31:25.467,97.00,-72.12,4.69,217.91,24.93,-0.47,3.43
2025-04-29 17:31:26.024,97.56,-72.68,5.35,218.24,24.93,-0.48,3.4
2025-04-29 17:31:26.589,98.13,-72.04,5.4,219.91,24.94,-0.45,3.49
2025-04-29 17:31:27.152,98.69,-72.37,5.05,220.32,24.94,-0.45,3.43
2025-04-29 17:31:27.707,99.24,-72.84,5.05,220.99,24.96,-0.47,3.43
2025-04-29 17:31:28.265,99.80,-72.84,5.02,221.76,24.97,-0.48,3.42
2025-04-29 17:31:28.822,100.36,-72.69,4.96,222.87,25.01,-0.46,3.43
2025-04-29 17:31:29.384,100.92,-72.77,4.82,223.62,25.02,-0.46,3.43
2025-04-29 17:31:29.946,101.48,-73.2,5.1,224.26,25.02,-0.41,3.4
2025-04-29 17:31:30.503,102.04,-72.47,5.03,225.1,25.03,-0.4,3.38
2025-04-29 17:31:31.062,102.60,-72.32,5.08,226.3,25.06,-0.41,3.38
2025-04-29 17:31:31.626,103.16,-72.77,5.21,227.07,25.08,-0.4,3.43
2025-04-29 17:31:32.194,103.73,-72.99,5.01,227.77,25.08,-0.4,3.42
2025-04-29 17:31:32.741,104.28,-72.67,5.2,228.63,25.1,-0.38,3.43
2025-04-29 17:31:33.301,104.84,-72.55,5.32,229.52,25.12,-0.36,3.44
2025-04-29 17:31:33.862,105.40,-72.79,5.36,230.25,25.13,-0.33,3.43
2025-04-29 17:31:34.423,105.96,-70.13,5.23,231.65,25.13,-0.33,3.43
2025-04-29 17:31:34.980,106.52,-73.35,5.23,231.5,25.15,-0.33,3.44
2025-04-29 17:31:35.539,107.08,-71.84,5.04,232.68,25.16,-0.31,3.42
2025-04-29 17:31:36.102,107.64,-71.58,4.77,234.19,25.18,-0.25,3.46
2025-04-29 17:31:36.663,108.20,-64.98,8.49,234.48,25.18,-0.25,3.43
2025-04-29 17:31:37.225,108.76,-79.11,1.16,231.65,25.2,-0.22,3.43
2025-04-29 17:31:37.777,109.31,-73.84,9.29,236.68,25.23,-0.28,3.42
2025-04-29 17:31:38.342,109.88,-80.24,1.05,231.39,25.27,-0.28,3.43
2025-04-29 17:31:38.900,110.44,-77.73,7.55,230.62,25.28,-0.28,3.42
2025-04-29 17:31:39.456,110.99,-77.66,4.97,229.09,25.3,-0.33,3.42
2025-04-29 17:31:40.020,111.56,-78.74,2.29,228.01,25.33,-0.4,3.42
2025-04-29 17:31:40.576,112.11,-80.99,-1.79,225.24,25.37,-0.48,3.42
2025-04-29 17:31:41.139,112.68,-81.24,1.61,229.64,25.4,-0.48,3.43
2025-04-29 17:31:41.696,113.23,-79.24,3.53,231.4,25.43,-0.51,3.42
2025-04-29 17:31:42.255,113.79,-77.92,3.64,233.09,25.44,-0.54,3.43
2025-04-29 17:31:42.816,114.35,-78.68,3.23,233.44,25.46,-0.58,3.43
2025-04-29 17:31:43.375,114.91,-71.52,8.01,235.65,25.51,-0.7,3.42
2025-04-29 17:31:43.939,115.48,-72.06,6.8,235.36,25.51,-0.7,3.43
2025-04-29 17:31:44.496,116.03,-62.3,13.37,235.61,25.56,-0.82,3.42
2025-04-29 17:31:45.054,116.59,-47.78,30.07,245.59,25.58,-0.94,3.43
2025-04-29 17:31:45.619,117.16,-74.03,5.66,242.13,25.59,-1.13,3.43
2025-04-29 17:31:46.175,117.71,-69.51,4.41,235.22,25.58,-1.13,3.43
2025-04-29 17:31:46.737,118.27,-77.77,0.24,227.3,25.58,-1.25,3.45
2025-04-29 17:31:47.293,118.83,-84.45,-5.49,235.71,25.62,-1.37,3.43
2025-04-29 17:31:47.827,119.36,-91.45,5.33,247.5,25.67,-1.48,3.46
2025-04-29 17:31:48.333,119.87,-80.47,12.19,249.38,25.68,-1.48,3.43
2025-04-29 17:31:48.946,120.48,-67.24,8.36,251.62,25.68,-1.57,3.42
2025-04-29 17:31:49.452,120.99,-75.75,8.48,253.03,25.69,-1.59,3.48
2025-04-29 17:31:50.012,121.55,-75.2,10.78,254.36,25.71,-1.65,3.43
2025-04-29 17:31:50.572,122.11,-77.48,9.5,254.28,25.72,-1.71,3.44
2025-04-29 17:31:51.131,122.67,-87.85,8.6,257.22,25.72,-1.79,3.43
2025-04-29 17:31:51.695,123.23,-79.24,10.89,257.24,25.74,-1.81,3.43
2025-04-29 17:31:52.254,123.79,-76.22,8.1,257.93,25.74,-1.84,3.43
2025-04-29 17:31:52.810,124.35,-75.39,7.03,257.22,25.75,-1.89,3.42
2025-04-29 17:31:53.370,124.91,-75.69,7.38,255.48,25.79,-1.95,3.43
2025-04-29 17:31:53.933,125.47,-79.0,4.6,255.08,25.81,-2.01,3.43
2025-04-29 17:31:54.548,126.09,-78.19,3.73,254.72,25.84,-2.04,3.44
2025-04-29 17:31:55.053,126.59,-78.5,4.02,255.89,25.87,-2.1,3.46
2025-04-29 17:31:55.613,127.15,-78.72,3.94,256.8,25.91,-2.13,3.41
2025-04-29 17:31:56.221,127.76,-79.09,3.01,256.89,25.96,-2.16,3.38
2025-04-29 17:31:56.729,128.27,-77.93,4.53,258.81,26.0,-2.22,3.43
2025-04-29 17:31:57.290,128.83,-74.76,3.34,263.58,26.04,-2.27,3.43
2025-04-29 17:31:57.850,129.39,-22.34,2.86,265.86,26.07,-2.17,3.43
2025-04-29 17:31:58.410,129.95,-54.69,-6.42,271.17,26.05,-2.07,3.43
2025-04-29 17:31:58.970,130.51,-86.16,5.59,281.51,26.05,-2.0,3.43
2025-04-29 17:31:59.527,131.06,-85.13,5.21,277.57,26.05,-1.91,3.43
2025-04-29 17:32:00.089,131.63,-92.13,6.34,279.44,26.04,-1.85,3.43
2025-04-29 17:32:00.648,132.19,-60.65,4.12,278.46,26.06,-1.75,3.42
2025-04-29 17:32:01.209,132.75,-45.4,8.14,279.3,26.07,-1.66,3.43
2025-04-29 17:32:01.770,133.31,-36.5,15.26,280.97,26.05,-1.55,3.42
2025-04-29 17:32:02.326,133.86,-36.4,12.87,282.06,26.05,-1.44,3.42
2025-04-29 17:32:02.891,134.43,-5.62,9.29,281.38,26.02,-1.35,3.43
2025-04-29 17:32:03.448,134.99,-21.18,17.26,280.77,26.04,-1.16,3.43
2025-04-29 17:32:04.007,135.54,-23.53,22.27,279.22,26.03,-1.1,3.43
2025-04-29 17:32:04.569,136.11,-15.64,15.12,284.51,26.04,-0.97,3.44
2025-04-29 17:32:05.126,136.66,-20.0,18.01,288.82,26.03,-0.9,3.42
2025-04-29 17:32:05.692,137.23,-38.17,-1.45,284.41,26.03,-0.81,3.42
2025-04-29 17:32:06.249,137.79,-35.2,14.32,286.69,26.01,-0.79,3.43
2025-04-29 17:32:06.805,138.34,-33.76,10.82,286.48,26.02,-0.7,3.43
2025-04-29 17:32:07.365,138.90,-30.29,13.3,287.46,26.03,-0.67,3.43
2025-04-29 17:32:07.928,139.47,-27.78,6.91,288.97,26.04,-0.57,3.42
2025-04-29 17:32:08.486,140.02,-24.71,10.85,292.02,26.04,-0.52,3.43
2025-04-29 17:32:09.046,140.58,-23.2,7.87,293.31,26.03,-0.46,3.42
2025-04-29 17:32:09.609,141.15,-23.46,8.17,293.92,26.02,-0.38,3.43
2025-04-29 17:32:10.165,141.70,-23.83,8.36,295.56,26.01,-0.3,3.43
2025-04-29 17:32:10.767,142.30,-24.23,8.27,295.89,26.01,-0.24,3.43
2025-04-29 17:32:11.284,142.82,-23.72,9.36,305.03,26.01,-0.22,3.43
2025-04-29 17:32:11.854,143.39,-24.18,3.22,303.4,26.01,-0.15,3.42
2025-04-29 17:32:12.406,143.94,-17.9,-1.96,299.84,25.99,-0.2,3.38
2025-04-29 17:32:12.938,144.48,-12.47,-2.12,299.67,25.99,-0.19,3.43
2025-04-29 17:32:13.444,144.98,-22.15,0.22,300.37,25.99,-0.21,3.42
2025-04-29 17:32:14.009,145.55,-19.55,-0.75,300.38,25.96,-0.22,3.43
2025-04-29 17:32:14.565,146.10,-18.35,0.28,301.4,25.94,-0.21,3.43
2025-04-29 17:32:15.130,146.67,-17.55,0.27,302.48,25.92,-0.23,3.42
2025-04-29 17:32:15.690,147.23,-19.13,0.57,303.27,25.91,-0.23,3.42
2025-04-29 17:32:16.248,147.79,-18.71,0.44,303.84,25.89,-0.22,3.42
2025-04-29 17:32:16.812,148.35,-17.59,0.83,304.49,25.86,-0.2,3.43
2025-04-29 17:32:17.363,148.90,-19.53,0.24,305.6,25.85,-0.19,3.46
2025-04-29 17:32:17.922,149.46,-16.67,0.47,306.64,25.82,-0.21,3.41
2025-04-29 17:32:18.480,150.02,-23.15,15.72,307.48,25.79,-0.2,3.43
2025-04-29 17:32:19.043,150.58,-54.49,15.91,302.79,25.8,-0.14,3.44
2025-04-29 17:32:19.603,151.14,-32.02,22.0,308.1,25.81,-0.11,3.42
2025-04-29 17:32:20.162,151.70,-15.07,22.53,317.43,25.8,-0.14,3.43
2025-04-29 17:32:20.721,152.26,-8.0,23.83,320.65,25.79,-0.12,3.43
2025-04-29 17:32:21.282,152.82,-5.1,-4.94,320.96,25.8,-0.09,3.42
2025-04-29 17:32:21.841,153.38,-2.01,-4.97,319.79,25.8,-0.08,3.42
2025-04-29 17:32:22.404,153.94,-8.27,-3.61,323.67,25.83,-0.05,3.42
2025-04-29 17:32:22.961,154.50,-1.92,-4.6,322.47,25.83,-0.03,3.42
2025-04-29 17:32:23.528,155.07,-7.29,-4.32,322.67,25.82,0.02,3.43
2025-04-29 17:32:24.083,155.62,-5.21,-4.28,324.17,25.81,0.05,3.43
2025-04-29 17:32:24.643,156.18,-5.65,-4.46,325.51,25.79,0.07,3.43
2025-04-29 17:32:25.205,156.74,-5.27,-4.76,325.82,25.79,0.1,3.42
2025-04-29 17:32:25.762,157.30,-5.79,-4.95,325.78,25.8,0.15,3.42
2025-04-29 17:32:26.320,157.86,-5.16,-4.87,326.44,25.8,0.16,3.49
2025-04-29 17:32:26.882,158.42,-5.59,-5.1,327.42,25.8,0.2,3.42
2025-04-29 17:32:27.411,158.95,-5.62,-5.87,328.66,25.8,0.21,3.39
2025-04-29 17:32:27.922,159.46,-5.9,-6.75,329.53,25.8,0.23,3.42
2025-04-29 17:32:28.477,160.01,-5.81,-6.67,330.38,25.81,0.26,3.43
2025-04-29 17:32:29.041,160.58,-5.65,-6.78,330.22,25.79,0.28,3.42
2025-04-29 17:32:29.657,161.19,-7.73,-8.54,319.6,25.76,0.29,3.43
2025-04-29 17:32:30.167,161.70,-2.35,-7.18,321.04,25.75,0.27,3.42
2025-04-29 17:32:30.722,162.26,1.46,-6.53,312.37,25.73,0.27,3.42
2025-04-29 17:32:31.308,162.85,-0.05,-5.75,306.1,25.71,0.3,3.42
2025-04-29 17:32:31.984,163.52,1.01,-6.89,310.56,25.73,0.31,3.42
2025-04-29 17:32:32.559,164.10,2.1,-6.09,311.71,25.72,0.35,3.43
2025-04-29 17:32:33.082,164.62,2.05,-7.22,313.48,25.73,0.35,3.43
2025-04-29 17:32:33.636,165.17,1.18,-8.94,319.58,25.73,0.39,3.44
2025-04-29 17:32:34.200,165.74,-29.26,-4.25,335.4,25.72,0.39,3.4
2025-04-29 17:32:34.760,166.30,-33.56,9.44,344.38,25.73,0.31,3.42
2025-04-29 17:32:35.313,166.85,-60.02,-2.89,344.6,25.74,0.25,3.42
2025-04-29 17:32:35.874,167.41,-71.73,0.63,346.42,25.74,0.23,3.42
2025-04-29 17:32:36.403,167.94,-72.88,2.15,348.14,25.76,0.18,3.43
2025-04-29 17:32:36.912,168.45,-72.66,1.6,349.24,25.78,0.15,3.43
2025-04-29 17:32:37.476,169.01,-72.18,1.68,349.49,25.79,0.11,3.42
2025-04-29 17:32:38.033,169.57,-72.07,1.84,350.51,25.79,0.1,3.43
2025-04-29 17:32:38.594,170.13,-73.09,2.56,351.36,25.8,0.06,3.44
2025-04-29 17:32:39.151,170.69,-73.4,2.15,352.68,25.81,0.06,3.43
2025-04-29 17:32:39.713,171.25,-78.31,4.74,355.99,25.84,-0.01,3.44
2025-04-29 17:32:40.270,171.81,-47.09,0.8,344.01,25.86,-0.09,3.43
2025-04-29 17:32:40.832,172.37,-57.37,-11.91,342.51,25.87,-0.14,3.42
2025-04-29 17:32:41.391,172.93,-38.22,6.42,351.45,25.84,-0.19,3.42
2025-04-29 17:32:41.965,173.50,-24.55,27.09,336.64,25.79,-0.35,3.42
2025-04-29 17:32:42.513,174.05,-5.59,30.69,356.13,25.74,-0.36,3.42
2025-04-29 17:32:43.087,174.62,10.73,17.35,375.54,25.72,-0.34,3.42
2025-04-29 17:32:43.613,175.15,28.74,-11.72,397.21,25.7,-0.22,3.39
2025-04-29 17:32:44.137,175.67,33.58,-16.34,405.34,25.68,-0.11,3.42
2025-04-29 17:32:44.655,176.19,31.43,5.29,394.57,25.65,-0.03,3.42
2025-04-29 17:32:45.202,176.74,22.81,37.43,361.08,25.61,0.07,3.42
2025-04-29 17:32:45.821,177.36,28.05,36.63,356.85,25.58,0.15,3.42
2025-04-29 17:32:46.380,177.92,20.76,15.82,363.71,25.55,0.17,3.42
2025-04-29 17:32:46.897,178.43,34.26,12.06,376.28,25.53,0.24,3.41
2025-04-29 17:32:47.418,178.96,23.79,6.13,387.04,25.49,0.35,3.44
2025-04-29 17:32:47.948,179.49,41.02,-2.55,391.41,25.44,0.45,3.42
2025-04-29 17:32:48.492,180.03,42.77,4.01,388.51,25.4,0.52,3.44
2025-04-29 17:32:49.064,180.60,40.73,4.53,392.83,25.37,0.64,3.42
2025-04-29 17:32:49.670,181.21,49.01,-9.68,402.3,25.32,0.74,3.42
2025-04-29 17:32:50.258,181.80,57.57,-12.52,409.97,25.27,0.82,3.4
2025-04-29 17:32:50.823,182.36,41.21,-18.1,416.65,25.25,0.92,3.42
2025-04-29 17:32:51.377,182.91,40.04,-36.09,424.82,25.2,1.07,3.42
2025-04-29 17:32:51.936,183.47,50.42,-25.85,424.07,25.17,1.13,3.41
2025-04-29 17:32:52.456,183.99,47.1,-31.6,431.45,25.12,1.25,3.41
2025-04-29 17:32:53.062,184.60,41.88,-23.84,424.97,25.09,1.33,3.41
2025-04-29 17:32:53.608,185.15,46.06,-30.89,427.12,25.06,1.38,3.4
2025-04-29 17:32:54.205,185.74,22.48,-34.05,434.14,25.02,1.52,3.39
2025-04-29 17:32:54.736,186.27,58.25,-17.43,425.09,24.99,1.59,3.46
2025-04-29 17:32:55.249,186.79,31.14,-17.45,422.53,24.96,1.65,3.42
2025-04-29 17:32:55.813,187.35,46.02,-1.09,418.33,24.93,1.7,3.38
2025-04-29 17:32:56.404,187.94,31.35,15.43,410.52,24.9,1.81,3.39
2025-04-29 17:32:57.023,188.56,131.41,35.01,425.23,24.85,1.89,3.42
2025-04-29 17:32:57.563,189.10,-0.69,16.73,416.02,24.83,1.91,3.42
2025-04-29 17:32:58.114,189.65,20.3,-3.31,418.38,24.81,1.88,3.42
2025-04-29 17:32:58.686,190.22,14.72,20.96,427.5,24.81,1.85,3.42
2025-04-29 17:32:59.236,190.77,1.9,42.97,421.27,24.78,1.74,3.42
2025-04-29 17:32:59.799,191.34,5.44,46.95,417.73,24.79,1.61,3.42
2025-04-29 17:33:00.354,191.89,10.6,47.62,418.88,24.79,1.39,3.38
2025-04-29 17:33:00.912,192.45,4.77,45.73,413.74,24.79,1.29,3.42
2025-04-29 17:33:01.484,193.02,8.98,43.72,415.03,24.79,1.16,3.42
2025-04-29 17:33:02.034,193.57,4.17,44.81,413.47,24.8,1.08,3.41
2025-04-29 17:33:02.598,194.14,8.64,51.49,414.38,24.79,0.85,3.47
2025-04-29 17:33:03.114,194.65,8.78,53.0,415.05,24.81,0.72,3.42
2025-04-29 17:33:03.634,195.17,3.61,39.15,411.95,24.81,0.74,3.42
2025-04-29 17:33:04.166,195.70,1.25,51.91,414.93,24.79,0.74,3.41
2025-04-29 17:33:04.669,196.21,19.31,41.64,420.95,24.76,0.89,3.42
2025-04-29 17:33:05.231,196.77,30.47,13.14,424.6,24.72,1.09,3.42
2025-04-29 17:33:05.793,197.33,27.32,3.82,430.72,24.7,1.17,3.39
2025-04-29 17:33:06.356,197.89,34.44,12.75,438.5,24.7,1.17,3.38
2025-04-29 17:33:06.912,198.45,22.68,18.21,446.72,24.69,1.16,3.42
2025-04-29 17:33:07.478,199.02,4.18,44.02,440.53,24.65,0.86,3.42
2025-04-29 17:33:08.030,199.57,-0.2,50.13,437.57,24.66,0.56,3.41
2025-04-29 17:33:08.580,200.12,-7.0,61.03,433.61,24.69,0.56,3.42
2025-04-29 17:33:09.136,200.67,-29.26,52.39,418.15,24.71,0.26,3.45
2025-04-29 17:33:09.665,201.20,-88.32,32.2,419.18,24.71,0.07,3.4
2025-04-29 17:33:10.180,201.72,-156.95,-6.64,434.18,24.7,-0.25,3.43
2025-04-29 17:33:10.741,202.28,-109.66,17.87,433.1,24.71,-0.55,3.42
2025-04-29 17:33:11.276,202.81,-149.46,-5.08,433.37,24.72,-0.55,3.39
2025-04-29 17:33:11.779,203.32,-152.99,1.26,439.48,24.72,-0.66,3.4
2025-04-29 17:33:12.339,203.88,-156.62,-18.59,444.83,24.71,-0.77,3.38
2025-04-29 17:33:12.897,204.43,-155.51,-30.02,444.01,24.7,-0.82,3.42
2025-04-29 17:33:13.457,204.99,-156.11,-35.18,444.18,24.69,-0.86,3.4
2025-04-29 17:33:14.020,205.56,-160.64,-38.99,441.74,24.67,-0.92,3.42
2025-04-29 17:33:14.583,206.12,-158.13,-37.01,443.76,24.66,-0.98,3.42
2025-04-29 17:33:15.105,206.64,-158.81,-37.48,444.19,24.66,-1.04,3.42
2025-04-29 17:33:15.665,207.20,-161.13,-38.7,444.44,24.65,-1.07,3.41
2025-04-29 17:33:16.225,207.76,-161.62,-39.14,443.93,24.65,-1.06,3.49
2025-04-29 17:33:16.781,208.32,-112.4,-17.65,463.96,24.64,-1.11,3.42
2025-04-29 17:33:17.336,208.87,-102.23,-10.34,469.82,24.63,-1.07,3.42
2025-04-29 17:33:17.896,209.43,-112.61,-12.21,474.66,24.62,-0.96,3.42
2025-04-29 17:33:18.456,209.99,-15.48,-15.16,441.88,24.62,-0.99,3.36
2025-04-29 17:33:18.990,210.53,-10.42,-16.18,391.15,24.61,-0.96,3.42
2025-04-29 17:33:19.518,211.06,11.26,-15.93,351.36,24.6,-0.92,3.41
2025-04-29 17:33:20.051,211.59,25.66,-0.26,344.12,24.59,-0.87,3.46
2025-04-29 17:33:20.607,212.14,27.76,2.99,349.07,24.59,-0.84,3.41
2025-04-29 17:33:21.172,212.71,23.41,7.43,346.87,24.57,-0.78,3.42
2025-04-29 17:33:21.710,213.25,17.88,6.74,359.61,24.59,-0.75,3.41
2025-04-29 17:33:22.266,213.80,2.68,10.4,368.06,24.57,-0.71,3.41
2025-04-29 17:33:22.827,214.36,8.0,3.97,355.94,24.56,-0.71,3.41
2025-04-29 17:33:23.400,214.94,18.65,4.0,345.96,24.55,-0.72,3.41
2025-04-29 17:33:23.955,215.49,34.23,11.6,340.35,24.54,-0.68,3.45
2025-04-29 17:33:24.481,216.02,28.53,12.13,348.95,24.53,-0.62,3.42
2025-04-29 17:33:25.038,216.58,33.0,5.17,357.8,24.52,-0.57,3.42
2025-04-29 17:33:25.565,217.10,28.39,6.23,352.92,24.52,-0.54,3.42
2025-04-29 17:33:26.076,217.61,27.22,5.67,350.17,24.5,-0.52,3.39
2025-04-29 17:33:26.631,218.17,31.88,17.74,347.66,24.5,-0.5,3.42
2025-04-29 17:33:27.193,218.73,22.98,24.98,345.86,24.5,-0.39,3.42
2025-04-29 17:33:27.695,219.23,38.93,24.52,354.07,24.49,-0.39,3.41
2025-04-29 17:33:28.269,219.81,19.7,4.06,376.07,24.49,-0.3,3.4
2025-04-29 17:33:28.830,220.37,5.84,-0.33,382.36,24.49,-0.2,3.38
2025-04-29 17:33:29.381,220.92,-5.64,3.99,379.68,24.49,-0.16,3.4
2025-04-29 17:33:29.941,221.48,-3.2,2.51,379.28,24.48,-0.16,3.4
2025-04-29 17:33:30.498,222.04,3.19,-0.06,383.85,24.47,-0.1,3.41
2025-04-29 17:33:31.056,222.59,-4.81,2.75,388.29,24.43,0.08,3.37
2025-04-29 17:33:31.616,223.15,-3.65,3.69,390.08,24.38,0.17,3.42
2025-04-29 17:33:32.177,223.71,-6.08,2.0,388.92,24.35,0.17,3.42
2025-04-29 17:33:32.734,224.27,-4.48,3.02,389.42,24.31,0.25,3.41
2025-04-29 17:33:33.293,224.83,-4.78,2.47,390.28,24.25,0.35,3.39
2025-04-29 17:33:33.854,225.39,-5.78,-8.27,373.3,24.21,0.4,3.41
2025-04-29 17:33:34.419,225.96,-2.04,-19.74,369.14,24.23,0.4,3.42
2025-04-29 17:33:34.978,226.52,1.4,-6.36,365.15,24.22,0.41,3.41
2025-04-29 17:33:35.532,227.07,-18.3,16.17,368.15,24.17,0.44,3.36
2025-04-29 17:33:36.148,227.69,-27.46,-6.67,364.02,24.15,0.45,3.41
2025-04-29 17:33:36.651,228.19,0.01,7.32,371.4,24.14,0.45,3.4
2025-04-29 17:33:37.215,228.75,-0.32,-10.81,382.44,24.13,0.53,3.42
2025-04-29 17:33:37.776,229.31,1.92,-37.45,397.43,24.11,0.6,3.4
2025-04-29 17:33:38.341,229.88,-22.07,-42.85,407.75,24.09,0.71,3.41
2025-04-29 17:33:38.921,230.46,51.52,-60.69,403.71,24.07,0.71,3.41
2025-04-29 17:33:39.428,230.97,28.79,-40.24,406.53,24.05,0.72,3.36
2025-04-29 17:33:39.985,231.52,14.5,-25.52,404.88,24.03,0.76,3.4
2025-04-29 17:33:40.516,232.05,5.67,8.64,400.21,24.02,0.81,3.41
2025-04-29 17:33:41.020,232.56,9.39,41.25,393.55,24.0,0.8,3.37
2025-04-29 17:33:41.533,233.07,-2.43,58.47,377.71,24.0,0.76,3.4
2025-04-29 17:33:42.095,233.63,0.4,61.94,371.5,24.02,0.61,3.4
2025-04-29 17:33:42.650,234.19,-8.82,52.1,367.92,24.02,0.46,3.4
2025-04-29 17:33:43.226,234.76,-21.0,41.87,363.46,24.01,0.29,3.4
2025-04-29 17:33:43.772,235.31,-32.18,35.75,360.06,24.0,0.01,3.4
2025-04-29 17:33:44.325,235.86,-35.82,13.53,375.99,23.98,-0.12,3.42
2025-04-29 17:33:44.889,236.43,-37.42,-2.44,386.58,23.95,-0.23,3.41
2025-04-29 17:33:45.448,236.99,-33.01,3.35,382.34,23.93,-0.36,3.41
2025-04-29 17:33:45.972,237.51,-35.54,4.15,382.51,23.93,-0.46,3.4
2025-04-29 17:33:46.486,238.02,-36.06,3.65,383.65,23.9,-0.58,3.42
2025-04-29 17:33:47.050,238.59,-32.06,3.38,384.5,23.89,-0.65,3.41
2025-04-29 17:33:47.610,239.15,-35.08,3.71,385.17,23.87,-0.76,3.4
2025-04-29 17:33:48.170,239.71,-30.06,3.11,386.56,23.86,-0.84,3.41
2025-04-29 17:33:48.730,240.27,-29.44,3.05,387.26,23.87,-0.89,3.41
2025-04-29 17:33:49.293,240.83,-33.74,3.19,388.0,23.87,-0.94,3.4
2025-04-29 17:33:49.848,241.39,-36.56,3.52,388.56,23.86,-1.02,3.41
2025-04-29 17:33:50.403,241.94,-36.35,3.25,389.54,23.85,-1.08,3.41
2025-04-29 17:33:50.976,242.51,-38.79,4.23,390.46,23.83,-1.11,3.41
2025-04-29 17:33:51.534,243.07,-39.0,3.99,390.88,23.82,-1.19,3.37
2025-04-29 17:33:52.133,243.67,-39.06,3.35,391.62,23.8,-1.25,3.41
2025-04-29 17:33:52.641,244.18,-35.83,3.83,393.05,23.78,-1.3,3.41
2025-04-29 17:33:53.207,244.74,-36.27,4.1,394.95,23.76,-1.35,3.42
2025-04-29 17:33:53.770,245.31,-38.28,3.94,395.03,23.75,-1.4,3.41
2025-04-29 17:33:54.320,245.86,-40.21,3.08,394.55,23.75,-1.4,3.42
2025-04-29 17:33:54.893,246.43,-39.39,3.65,395.49,23.73,-1.45,3.34
2025-04-29 17:33:55.450,246.99,-37.87,2.76,395.94,23.72,-1.43,3.4
2025-04-29 17:33:56.000,247.54,-38.36,2.56,396.39,23.69,-1.49,3.4
2025-04-29 17:33:56.563,248.10,-37.36,3.05,398.28,23.65,-1.49,3.4
2025-04-29 17:33:57.124,248.66,-36.13,2.92,398.61,23.64,-1.49,3.4
2025-04-29 17:33:57.683,249.22,-37.75,3.02,399.91,23.62,-1.55,3.38
2025-04-29 17:33:58.245,249.78,-33.37,2.98,401.02,23.61,-1.59,3.4
2025-04-29 17:33:58.800,250.34,-35.02,3.17,401.57,23.6,-1.6,3.4
2025-04-29 17:33:59.361,250.90,-34.31,2.79,402.02,23.62,-1.63,3.41
2025-04-29 17:33:59.923,251.46,-39.11,2.39,401.57,23.61,-1.65,3.4
2025-04-29 17:34:00.483,252.02,-36.53,1.85,399.11,23.58,-1.68,3.4
2025-04-29 17:34:01.012,252.55,-37.93,0.52,400.0,23.59,-1.69,3.4
2025-04-29 17:34:01.519,253.06,-36.24,1.13,401.07,23.58,-1.71,3.4
2025-04-29 17:34:02.132,253.67,-40.02,2.63,403.53,23.53,-1.71,3.4
2025-04-29 17:34:02.642,254.18,-44.58,0.76,405.53,23.52,-1.71,3.37
2025-04-29 17:34:03.207,254.74,-40.41,0.49,405.11,23.5,-1.75,3.4
2025-04-29 17:34:03.760,255.30,-40.12,2.56,406.92,23.47,-1.76,3.4
2025-04-29 17:34:04.319,255.86,-42.77,1.88,406.54,23.44,-1.78,3.4
2025-04-29 17:34:04.882,256.42,-38.67,11.45,404.04,23.42,-1.81,3.4
2025-04-29 17:34:05.435,256.97,-42.07,20.88,393.71,23.4,-1.88,3.4
2025-04-29 17:34:05.998,257.54,-35.09,30.87,389.87,23.43,-1.9,3.42
2025-04-29 17:34:06.555,258.09,-47.3,32.92,380.13,23.46,-1.9,3.4
2025-04-29 17:34:07.114,258.65,-77.59,14.62,368.23,23.52,-2.35,3.41
2025-04-29 17:34:07.677,259.21,-77.39,13.66,366.61,23.51,-2.32,3.4
2025-04-29 17:34:08.208,259.75,-65.18,21.74,375.65,23.5,-2.48,3.41
2025-04-29 17:34:08.712,260.25,-63.2,10.71,377.24,23.55,-2.59,3.4
2025-04-29 17:34:09.272,260.81,-61.26,6.84,370.18,23.56,-2.59,3.4
2025-04-29 17:34:09.836,261.37,-41.54,9.31,372.65,23.57,-2.51,3.39
2025-04-29 17:34:10.392,261.93,-30.25,0.84,364.65,23.61,-2.4,3.4
2025-04-29 17:34:10.955,262.49,-18.38,-3.26,374.18,23.62,-2.29,3.34
2025-04-29 17:34:11.490,263.03,-18.04,13.49,398.02,23.63,-2.29,3.4
2025-04-29 17:34:12.047,263.58,-10.13,0.08,396.11,23.63,-2.17,3.4
2025-04-29 17:34:12.566,264.10,0.08,4.43,402.62,23.63,-2.06,3.4
2025-04-29 17:34:13.184,264.72,7.08,1.58,412.64,23.63,-1.77,3.41
2025-04-29 17:34:13.686,265.22,30.61,-8.2,412.24,23.63,-1.77,3.4
2025-04-29 17:34:14.255,265.79,6.12,5.03,425.75,23.62,-1.65,3.39
2025-04-29 17:34:14.809,266.35,3.63,-8.48,440.78,23.61,-1.52,3.41
2025-04-29 17:34:15.376,266.91,1.22,-0.06,450.45,23.6,-1.25,3.4
2025-04-29 17:34:15.923,267.46,-2.26,19.78,443.15,23.6,-1.25,3.43
2025-04-29 17:34:16.486,268.02,-9.75,-24.11,425.98,23.61,-1.1,3.4
2025-04-29 17:34:17.039,268.58,5.11,6.82,439.99,23.6,-1.02,3.4
2025-04-29 17:34:17.592,269.13,-12.99,-18.69,479.2,23.58,-0.91,3.4
2025-04-29 17:34:18.093,269.63,-3.52,-4.09,486.92,23.56,-0.91,3.4
2025-04-29 17:34:18.637,270.17,-3.17,-5.57,491.65,23.56,-0.82,3.41
2025-04-29 17:34:19.202,270.74,7.02,-11.7,480.31,23.56,-0.74,3.4
2025-04-29 17:34:19.755,271.29,-18.23,-11.6,480.3,23.58,-0.66,3.41
2025-04-29 17:34:20.310,271.85,-23.22,-0.8,483.92,23.58,-0.62,3.4
2025-04-29 17:34:20.881,272.42,-19.46,-4.96,485.93,23.56,-0.54,3.39
2025-04-29 17:34:21.439,272.98,-18.03,-6.9,488.33,23.56,-0.49,3.4
2025-04-29 17:34:21.991,273.53,-17.83,-4.08,484.76,23.56,-0.4,3.4
2025-04-29 17:34:22.553,274.09,-15.69,-4.8,483.06,23.55,-0.31,3.4
2025-04-29 17:34:23.111,274.65,-14.66,-2.86,476.61,23.55,-0.25,3.38
2025-04-29 17:34:23.671,275.21,-12.77,-3.13,478.01,23.54,-0.17,3.4
2025-04-29 17:34:24.228,275.77,-12.04,-3.21,476.94,23.54,-0.11,3.4
2025-04-29 17:34:24.794,276.33,-9.92,-3.11,473.25,23.54,-0.06,3.39
2025-04-29 17:34:25.362,276.90,-14.37,2.01,470.1,23.53,0.02,3.4
2025-04-29 17:34:25.909,277.45,-11.33,-9.76,468.09,23.52,0.03,3.4
2025-04-29 17:34:26.481,278.02,-10.01,-1.95,465.44,23.52,0.08,3.4
2025-04-29 17:34:27.067,278.60,-7.3,8.98,461.88,23.51,0.11,3.39
2025-04-29 17:34:27.651,279.19,-7.38,13.58,443.43,23.49,0.14,3.4
2025-04-29 17:34:28.198,279.74,0.35,12.04,436.68,23.5,0.17,3.4
2025-04-29 17:34:28.760,280.30,6.52,32.43,427.99,23.48,0.17,3.39
2025-04-29 17:34:29.317,280.85,-3.74,30.7,413.92,23.49,0.09,3.4
2025-04-29 17:34:29.869,281.41,-9.98,18.99,403.37,23.48,0.09,3.42
2025-04-29 17:34:30.434,281.97,-18.86,11.71,400.97,23.48,0.05,3.4
2025-04-29 17:34:31.003,282.54,-5.92,-1.52,417.24,23.49,0.0,3.39
2025-04-29 17:34:31.558,283.10,0.2,-7.28,440.75,23.48,-0.04,3.4
2025-04-29 17:34:32.102,283.64,-1.15,-6.33,450.3,23.49,-0.03,3.4
2025-04-29 17:34:32.676,284.21,0.58,-3.93,458.87,23.49,-0.02,3.4
2025-04-29 17:34:33.231,284.77,-4.19,-4.9,459.53,23.5,0.03,3.4
2025-04-29 17:34:33.763,285.30,0.64,-4.72,448.21,23.5,0.07,3.36
2025-04-29 17:34:34.315,285.85,-1.82,-4.19,439.22,23.5,0.11,3.4
2025-04-29 17:34:34.886,286.42,4.45,-22.47,447.08,23.51,0.12,3.4
2025-04-29 17:34:35.429,286.97,-3.79,-10.45,452.27,23.5,0.13,3.4
2025-04-29 17:34:35.962,287.50,4.19,-22.24,457.13,23.51,0.2,3.4
2025-04-29 17:34:36.512,288.05,0.63,-11.78,456.56,23.51,0.25,3.4
2025-04-29 17:34:37.047,288.58,-4.12,-15.92,465.08,23.49,0.25,3.36
2025-04-29 17:34:37.607,289.14,-5.56,-7.8,463.24,23.49,0.28,3.39
2025-04-29 17:34:38.154,289.69,0.27,-11.99,465.59,23.49,0.31,3.4
2025-04-29 17:34:38.707,290.24,1.45,-22.54,477.11,23.48,0.35,3.42
2025-04-29 17:34:39.218,290.76,0.54,-15.91,483.23,23.48,0.37,3.43
2025-04-29 17:34:39.800,291.34,4.78,-11.17,496.96,23.49,0.34,3.39
2025-04-29 17:34:40.312,291.85,37.06,-1.31,500.93,23.5,0.35,3.35
2025-04-29 17:34:40.836,292.37,23.7,-19.99,497.28,23.51,0.33,3.39
2025-04-29 17:34:41.397,292.93,5.58,9.43,452.86,23.51,0.36,3.4
2025-04-29 17:34:41.994,293.53,11.66,2.08,439.33,23.5,0.39,3.4
2025-04-29 17:34:42.529,294.07,7.1,4.48,448.1,23.5,0.39,3.42
2025-04-29 17:34:43.039,294.58,8.59,6.25,451.17,23.52,0.38,3.39
2025-04-29 17:34:43.557,295.09,10.52,3.59,451.87,23.52,0.38,3.39
2025-04-29 17:34:44.090,295.63,9.51,4.21,453.81,23.53,0.39,3.37
2025-04-29 17:34:44.656,296.19,6.58,19.3,452.89,23.53,0.4,3.36
2025-04-29 17:34:45.169,296.71,11.11,44.46,455.14,23.55,0.35,3.39
2025-04-29 17:34:45.705,297.24,12.61,43.82,454.47,23.57,0.35,3.39
2025-04-29 17:34:46.265,297.80,8.54,40.37,451.76,23.59,0.24,3.42
2025-04-29 17:34:46.778,298.32,5.59,47.74,446.12,23.61,0.17,3.39
2025-04-29 17:34:47.344,298.88,6.55,80.12,444.65,23.65,0.04,3.4
2025-04-29 17:34:47.900,299.44,-1.53,35.2,441.42,23.68,-0.18,3.39
2025-04-29 17:34:48.469,300.01,8.92,17.43,447.54,23.69,-0.18,3.38
2025-04-29 17:34:49.019,300.56,7.32,16.73,441.81,23.67,-0.12,3.4
2025-04-29 17:34:49.642,301.18,8.36,5.84,442.23,23.66,-0.08,3.38
2025-04-29 17:34:50.230,301.77,3.21,-38.75,447.85,23.62,-0.02,3.39
2025-04-29 17:34:50.789,302.33,-3.03,-17.38,465.63,23.62,0.08,3.4
2025-04-29 17:34:51.338,302.88,0.52,-17.77,467.76,23.6,0.15,3.39
2025-04-29 17:34:51.906,303.44,5.25,-17.86,451.24,23.6,0.24,3.4
2025-04-29 17:34:52.461,304.00,11.48,17.44,457.73,23.6,0.24,3.39
2025-04-29 17:34:53.036,304.57,10.23,21.23,459.39,23.58,0.34,3.4
2025-04-29 17:34:53.595,305.13,15.86,37.89,461.52,23.59,0.45,3.4
2025-04-29 17:34:54.153,305.69,16.93,34.87,455.08,23.59,0.55,3.39
2025-04-29 17:34:54.717,306.25,17.74,37.87,459.9,23.59,0.65,3.4
2025-04-29 17:34:55.313,306.85,9.33,16.85,451.09,23.59,0.67,3.4
2025-04-29 17:34:55.819,307.36,-32.57,32.38,443.06,23.59,0.59,3.39
2025-04-29 17:34:56.381,307.92,-40.91,20.34,426.61,23.6,0.36,3.36
2025-04-29 17:34:56.932,308.47,-55.29,19.09,411.59,23.61,0.25,3.39
2025-04-29 17:34:57.495,309.03,-46.47,-20.86,411.28,23.62,0.1,3.4
2025-04-29 17:34:58.052,309.59,-45.47,8.66,423.24,23.63,-0.02,3.39
2025-04-29 17:34:58.612,310.15,-20.22,-14.48,408.54,23.65,-0.14,3.4
2025-04-29 17:34:59.181,310.72,13.64,-20.78,388.65,23.64,-0.07,3.4
2025-04-29 17:34:59.761,311.30,37.85,9.16,410.48,23.63,-0.07,3.39
2025-04-29 17:35:00.317,311.85,25.73,-22.35,435.23,23.65,0.01,3.4
2025-04-29 17:35:00.863,312.40,11.22,-44.13,462.96,23.65,0.1,3.4
2025-04-29 17:35:01.418,312.96,-5.64,-28.24,464.9,23.66,0.14,3.39
2025-04-29 17:35:01.976,313.51,-4.2,-50.43,466.21,23.66,0.22,3.38
2025-04-29 17:35:02.540,314.08,-3.55,-27.79,470.56,23.66,0.26,3.4
2025-04-29 17:35:03.098,314.64,3.24,-39.3,474.44,23.65,0.33,3.39
2025-04-29 17:35:03.631,315.17,2.25,-35.67,481.75,23.65,0.4,3.39
2025-04-29 17:35:04.141,315.68,-3.58,-38.69,488.24,23.65,0.44,3.4
2025-04-29 17:35:04.700,316.24,-4.88,-50.21,484.22,23.63,0.46,3.4
2025-04-29 17:35:05.244,316.78,1.0,-37.64,471.54,23.61,0.52,3.41
2025-04-29 17:35:05.777,317.31,0.31,-23.67,453.95,23.59,0.54,3.38
2025-04-29 17:35:06.323,317.86,9.86,-2.77,445.23,23.55,0.54,3.38
2025-04-29 17:35:06.898,318.44,1.6,-0.67,441.74,23.53,0.51,3.39
2025-04-29 17:35:07.447,318.98,-0.52,-1.84,450.22,23.53,0.46,3.39
2025-04-29 17:35:08.008,319.55,1.72,2.36,458.01,23.53,0.45,3.39
2025-04-29 17:35:08.560,320.10,8.7,9.29,457.18,23.53,0.49,3.39
2025-04-29 17:35:09.135,320.67,8.22,27.44,457.39,23.54,0.47,3.41
2025-04-29 17:35:09.674,321.21,13.05,37.56,453.21,23.56,0.44,3.4
2025-04-29 17:35:10.230,321.77,10.79,19.34,461.42,23.56,0.43,3.39
2025-04-29 17:35:10.808,322.35,-22.57,-4.88,466.27,23.56,0.36,3.4
2025-04-29 17:35:11.365,322.90,-39.05,14.5,467.93,23.55,0.22,3.39
2025-04-29 17:35:11.933,323.47,-50.15,12.89,464.36,23.57,0.05,3.39
2025-04-29 17:35:12.485,324.02,-34.0,48.16,478.29,23.6,-0.35,3.39
2025-04-29 17:35:13.062,324.60,-26.25,49.62,485.12,23.63,-0.73,3.4
2025-04-29 17:35:13.620,325.16,-19.49,0.87,493.37,23.66,-0.82,3.39
2025-04-29 17:35:14.177,325.71,-6.37,13.62,497.69,23.68,-0.86,3.39
2025-04-29 17:35:14.729,326.27,6.03,16.52,503.28,23.69,-0.81,3.39
2025-04-29 17:35:15.314,326.85,4.04,14.72,503.45,23.69,-0.76,3.4
2025-04-29 17:35:15.862,327.40,7.6,10.02,507.08,23.69,-0.76,3.37
2025-04-29 17:35:16.387,327.92,6.14,-9.6,504.0,23.69,-0.71,3.4
2025-04-29 17:35:16.893,328.43,5.42,-54.58,508.68,23.69,-0.67,3.39
2025-04-29 17:35:17.453,328.99,-4.64,-71.71,518.31,23.66,-0.57,3.39
2025-04-29 17:35:18.016,329.55,-2.6,-59.61,520.78,23.66,-0.5,3.39
2025-04-29 17:35:18.581,330.12,-6.66,-33.77,517.7,23.64,-0.44,3.39
2025-04-29 17:35:19.140,330.68,4.43,-42.49,520.45,23.62,-0.41,3.39
2025-04-29 17:35:19.690,331.23,-34.26,-86.48,519.54,23.62,-0.31,3.39
2025-04-29 17:35:20.249,331.79,-156.04,-82.33,526.85,23.59,-0.28,3.39
2025-04-29 17:35:20.804,332.34,-175.01,-84.34,528.81,23.58,-0.23,3.39
2025-04-29 17:35:21.308,332.85,-7.38,-68.14,523.98,23.57,-0.16,3.35
2025-04-29 17:35:21.866,333.40,6.27,-9.35,525.04,23.56,-0.11,3.4
2025-04-29 17:35:22.377,333.91,11.57,-24.16,519.03,23.55,-0.11,3.37
2025-04-29 17:35:22.937,334.47,3.08,35.68,517.39,23.55,-0.08,3.36
2025-04-29 17:35:23.486,335.02,1.88,71.89,510.52,23.56,-0.31,3.38
2025-04-29 17:35:24.047,335.58,-168.32,23.89,518.21,23.55,-0.79,3.38
2025-04-29 17:35:24.648,336.19,-154.44,19.3,498.52,23.55,-0.89,3.39
2025-04-29 17:35:25.165,336.70,-159.14,37.85,491.63,23.59,-0.89,3.34
2025-04-29 17:35:25.733,337.27,-94.65,22.17,474.84,23.65,-1.56,3.39
2025-04-29 17:35:26.281,337.82,-45.56,44.03,508.59,23.65,-1.56,3.39
2025-04-29 17:35:26.845,338.38,4.61,43.85,540.52,23.64,-1.48,3.4
2025-04-29 17:35:27.400,338.94,-27.55,1.35,539.27,23.62,-1.48,3.39
2025-04-29 17:35:27.963,339.50,-9.11,29.67,549.65,23.61,-1.46,3.39
2025-04-29 17:35:28.529,340.07,-7.69,29.77,565.77,23.63,-1.36,3.4
2025-04-29 17:35:29.082,340.62,-5.98,19.52,567.71,23.65,-1.3,3.39
2025-04-29 17:35:29.661,341.20,-7.55,9.65,577.66,23.65,-1.3,3.36
2025-04-29 17:35:30.199,341.74,-11.21,18.19,577.0,23.66,-1.24,3.39
2025-04-29 17:35:30.760,342.30,-26.15,1.26,577.92,23.64,-1.1,3.39
2025-04-29 17:35:31.322,342.86,-24.31,-8.4,583.32,23.64,-1.09,3.39
2025-04-29 17:35:31.887,343.42,-22.12,9.57,577.28,23.62,-1.09,3.36
2025-04-29 17:35:32.444,343.98,-20.93,4.89,571.73,23.63,-1.06,3.39
2025-04-29 17:35:32.998,344.54,-25.81,12.8,566.37,23.63,-1.04,3.41
2025-04-29 17:35:33.563,345.10,-23.87,28.42,571.13,23.64,-1.19,3.39
2025-04-29 17:35:34.119,345.66,-29.45,31.61,566.48,23.65,-1.19,3.41
2025-04-29 17:35:34.679,346.22,-22.51,7.39,565.33,23.67,-1.37,3.39
2025-04-29 17:35:35.237,346.77,-7.23,-1.75,589.16,23.67,-1.23,3.32
2025-04-29 17:35:35.802,347.34,-0.82,-9.43,599.59,23.67,-1.16,3.37
2025-04-29 17:35:36.366,347.90,-1.42,-4.0,595.73,23.67,-1.16,3.38
2025-04-29 17:35:36.922,348.46,17.19,10.49,597.67,23.66,-1.04,3.4
2025-04-29 17:35:37.492,349.03,16.04,35.14,604.96,23.66,-0.78,3.34
2025-04-29 17:35:38.053,349.59,17.0,36.79,603.35,23.66,-0.74,3.39
2025-04-29 17:35:38.623,350.16,14.8,37.58,596.45,23.67,-0.74,3.37
2025-04-29 17:35:39.162,350.70,9.88,49.13,597.35,23.69,-0.7,3.39
2025-04-29 17:35:39.723,351.26,13.25,45.98,594.48,23.69,-0.64,3.39
2025-04-29 17:35:40.223,351.76,15.87,48.05,596.19,23.7,-0.56,3.38
2025-04-29 17:35:40.762,352.30,14.11,45.96,592.93,23.71,-0.45,3.39
2025-04-29 17:35:41.322,352.86,20.15,54.21,592.43,23.7,-0.33,3.35
2025-04-29 17:35:41.881,353.42,23.62,48.68,594.6,23.7,-0.2,3.39
2025-04-29 17:35:42.444,353.98,29.32,46.48,599.14,23.7,-0.08,3.37
2025-04-29 17:35:42.981,354.52,28.4,47.72,595.49,23.7,-0.03,3.39
2025-04-29 17:35:43.486,355.02,19.78,53.36,588.69,23.72,0.04,3.35
2025-04-29 17:35:44.041,355.58,16.82,57.55,586.36,23.73,0.07,3.39
2025-04-29 17:35:44.602,356.14,15.55,55.92,586.56,23.74,0.1,3.4
2025-04-29 17:35:45.166,356.70,9.74,51.04,581.27,23.75,0.09,3.39
2025-04-29 17:35:45.770,357.31,33.68,-9.81,583.67,23.74,0.03,3.4
2025-04-29 17:35:46.336,357.87,31.32,-9.38,588.81,23.71,0.04,3.39
2025-04-29 17:35:46.848,358.39,28.13,-12.67,601.65,23.7,0.04,3.38
2025-04-29 17:35:47.374,358.91,21.86,6.77,595.81,23.7,0.02,3.38
2025-04-29 17:35:47.921,359.46,17.37,8.08,603.98,23.68,0.01,3.38
2025-04-29 17:35:48.493,360.03,8.89,-7.7,599.5,23.69,-0.01,3.37
2025-04-29 17:35:49.048,360.59,25.09,3.39,615.95,23.7,-0.01,3.39
2025-04-29 17:35:49.598,361.14,-0.96,5.25,593.78,23.71,0.01,3.38
2025-04-29 17:35:50.158,361.70,7.23,6.38,609.52,23.7,-0.03,3.39
2025-04-29 17:35:50.711,362.25,-15.83,17.35,614.07,23.69,-0.06,3.34
2025-04-29 17:35:51.276,362.81,7.75,-24.34,619.37,23.68,-0.03,3.4
2025-04-29 17:35:51.834,363.37,19.66,-3.93,606.31,23.68,-0.01,3.36
2025-04-29 17:35:52.402,363.94,13.75,8.77,605.74,23.69,0.04,3.39
2025-04-29 17:35:52.951,364.49,14.74,3.98,607.95,23.71,0.02,3.39
2025-04-29 17:35:53.520,365.06,15.97,1.76,610.23,23.69,0.04,3.37
2025-04-29 17:35:54.072,365.61,-12.55,7.98,612.18,23.68,0.08,3.39
2025-04-29 17:35:54.630,366.17,-29.75,10.37,609.36,23.67,0.1,3.36
2025-04-29 17:35:55.203,366.74,0.02,5.34,610.77,23.66,0.15,3.38
2025-04-29 17:35:55.759,367.30,17.84,5.68,610.21,23.66,0.13,3.38
2025-04-29 17:35:56.290,367.83,6.8,4.62,612.55,23.67,0.14,3.38
2025-04-29 17:35:56.801,368.34,14.55,5.37,611.81,23.66,0.15,3.44
2025-04-29 17:35:57.347,368.88,3.13,11.79,620.19,23.66,0.17,3.39
2025-04-29 17:35:57.905,369.44,-15.2,12.38,627.59,23.65,0.22,3.39
2025-04-29 17:35:58.465,370.00,-13.9,20.05,633.91,23.64,0.26,3.39
2025-04-29 17:35:59.038,370.58,14.67,4.05,626.94,23.64,0.3,3.38
2025-04-29 17:35:59.588,371.13,-2.66,9.18,632.6,23.63,0.35,3.35
2025-04-29 17:36:00.147,371.68,0.57,7.28,635.72,23.64,0.37,3.39
2025-04-29 17:36:00.707,372.24,-12.24,13.59,638.54,23.64,0.39,3.39
2025-04-29 17:36:01.270,372.81,-5.5,2.5,645.63,23.64,0.45,3.4
2025-04-29 17:36:01.831,373.37,5.19,-1.32,642.39,23.61,0.48,3.36
2025-04-29 17:36:02.395,373.93,5.49,-5.16,646.35,23.6,0.52,3.39
2025-04-29 17:36:02.950,374.49,3.52,-3.04,652.27,23.6,0.54,3.38
2025-04-29 17:36:03.508,375.05,10.07,-4.63,649.36,23.6,0.6,3.37
2025-04-29 17:36:04.010,375.55,17.12,-3.26,643.91,23.6,0.6,3.34
2025-04-29 17:36:04.553,376.09,18.27,1.3,639.1,23.6,0.66,3.39
2025-04-29 17:36:05.120,376.66,22.35,-9.99,645.22,23.6,0.69,3.37
2025-04-29 17:36:05.685,377.22,18.14,-3.48,640.35,23.6,0.69,3.37
2025-04-29 17:36:06.250,377.79,27.62,-1.29,635.19,23.59,0.69,3.37
2025-04-29 17:36:06.821,378.36,25.87,-2.14,650.24,23.57,0.77,3.38
2025-04-29 17:36:07.405,378.94,42.33,-23.83,666.87,23.56,0.78,3.38
2025-04-29 17:36:07.911,379.45,-19.53,-7.85,728.55,23.55,0.75,3.35
2025-04-29 17:36:08.467,380.00,-45.42,-10.01,777.86,23.54,0.75,3.39
2025-04-29 17:36:08.984,380.52,-17.17,-47.9,751.58,23.5,0.74,3.38
2025-04-29 17:36:09.551,381.09,-14.46,-6.33,717.05,23.46,0.71,3.38
2025-04-29 17:36:10.112,381.65,-10.73,12.65,721.43,23.43,0.69,3.4
2025-04-29 17:36:10.669,382.21,-3.94,-6.24,711.72,23.43,0.69,3.38
2025-04-29 17:36:11.233,382.77,7.76,7.85,693.57,23.43,0.74,3.38
2025-04-29 17:36:11.780,383.32,-4.51,-8.73,698.89,23.42,0.76,3.38
2025-04-29 17:36:12.305,383.84,-2.63,-11.1,706.95,23.4,0.82,3.38
2025-04-29 17:36:12.837,384.37,-0.69,0.86,709.95,23.39,0.82,3.37
2025-04-29 17:36:13.343,384.88,-5.34,-9.62,714.47,23.38,0.8,3.39
2025-04-29 17:36:13.905,385.44,-5.28,-4.53,711.7,23.37,0.8,3.35
2025-04-29 17:36:14.468,386.01,0.5,-8.59,710.12,23.35,0.83,3.38
2025-04-29 17:36:15.022,386.56,-1.82,-5.87,712.29,23.33,0.79,3.37
2025-04-29 17:36:15.587,387.12,1.36,-4.26,709.02,23.32,0.83,3.38
2025-04-29 17:36:16.155,387.69,4.92,-9.22,706.2,23.29,0.79,3.38
2025-04-29 17:36:16.760,388.30,4.7,7.83,705.71,23.28,0.79,3.39
2025-04-29 17:36:17.265,388.80,1.63,9.94,729.34,23.27,0.83,3.38
2025-04-29 17:36:17.838,389.38,12.7,-13.84,704.67,23.24,0.83,3.38
2025-04-29 17:36:18.387,389.92,8.95,-6.61,709.39,23.2,0.86,3.36
2025-04-29 17:36:18.943,390.48,1.4,-11.56,722.83,23.18,0.89,3.39
2025-04-29 17:36:19.515,391.05,1.64,-5.02,724.59,23.16,0.89,3.37
2025-04-29 17:36:20.120,391.66,3.12,-8.54,717.63,23.13,0.89,3.3
2025-04-29 17:36:20.633,392.17,12.18,-6.91,713.76,23.12,0.89,3.38
2025-04-29 17:36:21.140,392.68,2.05,-13.9,720.49,23.1,0.86,3.37
2025-04-29 17:36:21.701,393.24,0.28,-11.44,718.84,23.1,0.86,3.38
2025-04-29 17:36:22.269,393.81,-4.74,0.32,723.72,23.09,0.87,3.38
2025-04-29 17:36:22.824,394.36,-8.67,-6.32,725.38,23.09,0.87,3.38
2025-04-29 17:36:23.388,394.93,1.33,-6.6,721.04,23.07,0.85,3.38
2025-04-29 17:36:23.938,395.48,-4.9,-1.33,724.96,23.04,0.86,3.38
2025-04-29 17:36:24.510,396.05,-2.34,-8.56,727.25,23.02,0.83,3.37
2025-04-29 17:36:25.058,396.60,-4.67,-3.15,722.66,23.0,0.84,3.37
2025-04-29 17:36:25.626,397.16,1.39,-8.04,722.6,22.96,0.84,3.38
2025-04-29 17:36:26.188,397.73,14.93,-14.91,721.31,22.94,0.81,3.34
2025-04-29 17:36:26.743,398.28,-0.66,0.24,727.49,22.93,0.81,3.39
2025-04-29 17:36:27.305,398.84,7.99,-9.77,737.09,22.92,0.81,3.39
2025-04-29 17:36:27.885,399.42,9.32,-11.9,726.95,22.9,0.85,3.39
2025-04-29 17:36:28.421,399.96,2.72,-1.75,726.61,22.9,0.85,3.35
2025-04-29 17:36:28.979,400.52,-0.73,6.89,725.65,22.9,0.82,3.37
2025-04-29 17:36:29.533,401.07,-28.42,-1.48,718.15,22.91,0.74,3.33
2025-04-29 17:36:30.093,401.63,-20.42,-6.97,729.59,22.89,0.71,3.36
2025-04-29 17:36:30.616,402.15,-30.37,12.09,739.21,22.88,0.64,3.37
2025-04-29 17:36:31.171,402.71,-21.98,13.13,741.86,22.87,0.59,3.38
2025-04-29 17:36:31.731,403.27,-22.6,0.95,749.27,22.86,0.54,3.39
2025-04-29 17:36:32.298,403.84,-7.52,9.99,755.91,22.85,0.52,3.38
2025-04-29 17:36:32.858,404.40,-5.27,6.19,757.52,22.84,0.53,3.45
2025-04-29 17:36:33.422,404.96,-17.19,13.04,748.26,22.82,0.5,3.37
2025-04-29 17:36:33.973,405.51,-31.12,18.84,742.55,22.8,0.42,3.38
2025-04-29 17:36:34.532,406.07,-20.13,11.82,739.7,22.8,0.34,3.37
2025-04-29 17:36:35.091,406.63,-12.81,4.95,736.11,22.78,0.3,3.37
2025-04-29 17:36:35.663,407.20,-19.28,-0.02,736.99,22.78,0.26,3.37
2025-04-29 17:36:36.210,407.75,-14.23,-2.83,732.33,22.76,0.23,3.38
2025-04-29 17:36:36.772,408.31,-22.01,-14.92,738.39,22.75,0.18,3.37
2025-04-29 17:36:37.341,408.88,-27.38,-9.34,755.79,22.72,0.15,3.37
2025-04-29 17:36:37.888,409.43,-26.77,-5.55,761.31,22.72,0.12,3.37
2025-04-29 17:36:38.452,409.99,-35.6,10.15,772.83,22.7,0.09,3.38
2025-04-29 17:36:39.013,410.55,-42.03,4.57,770.19,22.69,0.07,3.37
2025-04-29 17:36:39.568,411.11,-35.27,10.44,774.58,22.68,0.0,3.38
2025-04-29 17:36:40.143,411.68,-24.51,7.71,772.12,22.66,-0.01,3.32
2025-04-29 17:36:40.695,412.23,-33.04,14.06,767.55,22.65,-0.08,3.39
2025-04-29 17:36:41.256,412.79,-24.74,12.58,770.25,22.65,-0.08,3.38
2025-04-29 17:36:41.806,413.34,-22.15,0.1,762.15,22.63,-0.09,3.37
2025-04-29 17:36:42.370,413.91,-27.12,11.8,769.73,22.62,-0.09,3.37
2025-04-29 17:36:42.937,414.47,-27.45,-4.2,771.36,22.6,-0.1,3.37
2025-04-29 17:36:43.497,415.03,-1.94,2.92,773.23,22.59,-0.06,3.34
2025-04-29 17:36:44.056,415.59,-5.9,-16.27,794.53,22.59,0.04,3.37
2025-04-29 17:36:44.576,416.11,-5.2,-13.5,802.84,22.61,0.07,3.39
2025-04-29 17:36:45.191,416.73,2.45,-7.07,796.83,22.61,0.1,3.38
2025-04-29 17:36:45.708,417.25,2.75,3.14,798.35,22.6,0.13,3.39
2025-04-29 17:36:46.252,417.79,-4.05,-10.49,803.28,22.61,0.15,3.34
2025-04-29 17:36:46.813,418.35,-1.91,-8.24,807.47,22.61,0.17,3.38
2025-04-29 17:36:47.376,418.91,-8.17,-11.27,806.7,22.61,0.13,3.44
2025-04-29 17:36:47.928,419.47,-19.22,-0.07,811.09,22.6,0.06,3.37
2025-04-29 17:36:48.488,420.03,-20.85,-14.17,809.74,22.59,-0.02,3.37
2025-04-29 17:36:49.046,420.58,-22.33,-16.25,812.45,22.59,-0.09,3.37
2025-04-29 17:36:49.608,421.15,-26.6,-17.48,811.05,22.59,-0.09,3.37
2025-04-29 17:36:50.168,421.71,-20.37,-15.35,810.44,22.58,-0.18,3.37
2025-04-29 17:36:50.740,422.28,-15.43,-16.97,809.62,22.58,-0.21,3.37
2025-04-29 17:36:51.291,422.83,-15.03,-12.7,808.82,22.58,-0.21,3.37
2025-04-29 17:36:51.858,423.40,-13.01,-14.5,812.47,22.58,-0.21,3.36
2025-04-29 17:36:52.407,423.94,-13.71,-7.3,817.15,22.59,-0.27,3.37
2025-04-29 17:36:52.971,424.51,-11.25,8.9,814.76,22.58,-0.27,3.37
2025-04-29 17:36:53.580,425.12,-13.65,4.05,815.43,22.58,-0.28,3.38
2025-04-29 17:36:54.101,425.64,-12.68,-2.6,813.16,22.59,-0.28,3.37
2025-04-29 17:36:54.654,426.19,1.97,-16.01,801.08,22.57,-0.25,3.39
2025-04-29 17:36:55.214,426.75,-0.03,-15.5,799.59,22.57,-0.27,3.34
2025-04-29 17:36:55.769,427.31,-8.84,-46.97,788.11,22.56,-0.22,3.36
2025-04-29 17:36:56.332,427.87,-2.68,-31.34,786.16,22.54,-0.22,3.37
2025-04-29 17:36:56.885,428.42,5.66,-24.91,767.11,22.51,-0.16,3.39
2025-04-29 17:36:57.462,429.00,6.62,-6.63,773.13,22.49,-0.12,3.37
2025-04-29 17:36:58.013,429.55,1.32,-8.08,777.28,22.48,-0.09,3.37
2025-04-29 17:36:58.584,430.12,0.94,-1.89,765.94,22.48,-0.09,3.39
2025-04-29 17:36:59.136,430.67,1.01,9.46,756.35,22.47,-0.02,3.34
2025-04-29 17:36:59.704,431.24,0.72,-8.12,768.29,22.46,0.04,3.37
2025-04-29 17:37:00.253,431.79,1.55,-1.3,767.88,22.46,0.06,3.37
2025-04-29 17:37:00.806,432.34,0.1,2.37,764.2,22.46,0.06,3.37
2025-04-29 17:37:01.375,432.91,5.45,0.04,760.2,22.48,0.03,3.37
2025-04-29 17:37:01.971,433.51,3.22,3.5,751.57,22.48,0.06,3.37
2025-04-29 17:37:02.537,434.07,8.37,2.89,747.19,22.48,0.06,3.37
2025-04-29 17:37:03.099,434.64,5.68,0.3,751.41,22.49,0.06,3.36
2025-04-29 17:37:03.654,435.19,23.68,4.91,751.87,22.49,0.02,3.32
2025-04-29 17:37:04.218,435.76,11.03,1.98,764.04,22.51,0.04,3.4
2025-04-29 17:37:04.735,436.27,7.74,1.67,761.63,22.5,0.02,3.36
2025-04-29 17:37:05.297,436.84,9.4,1.6,763.4,22.5,0.02,3.36
2025-04-29 17:37:05.866,437.40,14.74,20.86,753.44,22.5,0.05,3.33
2025-04-29 17:37:06.412,437.95,13.87,6.81,750.17,22.51,0.08,3.35
2025-04-29 17:37:06.967,438.50,10.51,-2.03,742.99,22.51,0.05,3.37
2025-04-29 17:37:07.546,439.08,13.69,0.12,750.19,22.52,0.05,3.4
2025-04-29 17:37:08.102,439.64,20.31,3.16,757.39,22.53,0.09,3.36
2025-04-29 17:37:08.618,440.16,14.07,-2.01,759.42,22.55,0.12,3.37
2025-04-29 17:37:09.130,440.67,7.29,-1.44,758.22,22.56,0.11,3.35
2025-04-29 17:37:09.688,441.23,13.8,1.87,770.86,22.57,0.12,3.37
2025-04-29 17:37:10.249,441.79,11.31,-0.15,773.73,22.58,0.08,3.33
2025-04-29 17:37:10.815,442.35,14.19,-7.05,775.61,22.58,0.07,3.37
2025-04-29 17:37:11.333,442.87,17.91,-11.64,769.08,22.59,0.07,3.39
2025-04-29 17:37:11.876,443.41,16.31,-11.82,785.51,22.59,0.05,3.34
2025-04-29 17:37:12.432,443.97,-23.51,-26.73,802.97,22.59,0.0,3.37
2025-04-29 17:37:13.025,444.56,-36.43,-18.61,802.72,22.59,-0.02,3.37
2025-04-29 17:37:13.552,445.09,-37.52,-5.85,802.43,22.58,-0.07,3.36
2025-04-29 17:37:14.118,445.66,-17.9,-17.4,802.8,22.58,-0.03,3.37
2025-04-29 17:37:14.704,446.24,12.46,-50.9,786.39,22.61,-0.04,3.37
2025-04-29 17:37:15.260,446.80,8.73,-57.92,775.55,22.62,0.01,3.37
2025-04-29 17:37:15.807,447.34,13.46,-21.27,787.54,22.61,0.04,3.34
2025-04-29 17:37:16.364,447.90,1.19,-10.18,803.49,22.61,0.01,3.37
2025-04-29 17:37:16.923,448.46,-46.85,5.2,807.34,22.61,0.06,3.37
2025-04-29 17:37:17.475,449.01,-42.52,-10.75,782.39,22.6,0.05,3.36
2025-04-29 17:37:18.035,449.57,-19.77,-37.1,758.13,22.58,-0.02,3.37
2025-04-29 17:37:18.594,450.13,-23.86,-14.92,769.87,22.58,-0.05,3.36
2025-04-29 17:37:19.162,450.70,-6.27,2.41,785.93,22.56,-0.03,3.32
2025-04-29 17:37:19.694,451.23,9.34,0.71,789.21,22.57,0.05,3.37
2025-04-29 17:37:20.213,451.75,10.16,5.54,793.08,22.59,0.02,3.37
2025-04-29 17:37:20.753,452.29,-14.4,6.99,789.95,22.58,0.09,3.37
2025-04-29 17:37:21.589,453.13,-4.29,1.47,792.6,22.58,0.12,3.36
2025-04-29 17:37:22.174,453.71,9.43,5.65,795.42,22.58,0.23,3.37
2025-04-29 17:37:22.709,454.25,-19.8,3.69,803.61,22.58,0.3,3.38
2025-04-29 17:37:23.270,454.81,-31.04,8.9,807.38,22.59,0.3,3.36
2025-04-29 17:37:23.832,455.37,-13.3,2.76,803.43,22.58,0.35,3.37
2025-04-29 17:37:24.336,455.87,-1.45,2.16,796.82,22.56,0.43,3.35
2025-04-29 17:37:24.838,456.38,12.6,1.52,800.85,22.55,0.47,3.37
2025-04-29 17:37:25.375,456.91,27.06,3.76,796.2,22.55,0.55,3.38
2025-04-29 17:37:25.958,457.50,11.0,3.19,804.67,22.57,0.52,3.4
2025-04-29 17:37:26.466,458.00,17.99,8.36,804.08,22.57,0.54,3.37
2025-04-29 17:37:27.011,458.55,16.02,6.65,799.77,22.57,0.6,3.37
2025-04-29 17:37:27.572,459.11,17.56,1.39,806.59,22.58,0.57,3.35
2025-04-29 17:37:28.113,459.65,14.18,0.78,806.62,22.58,0.58,3.36
2025-04-29 17:37:28.698,460.24,-1.47,23.16,802.22,22.57,0.66,3.31
2025-04-29 17:37:29.246,460.78,12.37,15.75,805.05,22.56,0.58,3.41
2025-04-29 17:37:29.801,461.34,6.06,-4.2,803.3,22.54,0.48,3.37
2025-04-29 17:37:30.374,461.91,10.16,-16.22,804.49,22.54,0.27,3.37
2025-04-29 17:37:30.921,462.46,14.72,8.24,816.75,22.52,0.16,3.33
2025-04-29 17:37:31.476,463.01,-3.75,1.19,809.2,22.53,-0.02,3.37
2025-04-29 17:37:32.049,463.59,15.92,1.07,814.61,22.53,-0.11,3.37
2025-04-29 17:37:32.662,464.20,40.9,16.99,818.13,22.54,-0.11,3.34
2025-04-29 17:37:33.210,464.75,12.89,26.26,804.46,22.55,-0.11,3.34
2025-04-29 17:37:33.724,465.26,-2.81,31.98,801.07,22.56,-0.13,3.32
2025-04-29 17:37:34.267,465.80,2.81,39.1,800.99,22.55,-0.22,3.37
2025-04-29 17:37:34.832,466.37,-10.73,-44.27,766.2,22.56,-0.15,3.37
2025-04-29 17:37:35.400,466.94,6.02,-43.84,749.23,22.53,-0.1,3.37
2025-04-29 17:37:35.950,467.49,-13.82,7.76,799.2,22.5,0.01,3.37
2025-04-29 17:37:36.508,468.05,0.5,4.81,797.9,22.5,0.06,3.36
2025-04-29 17:37:37.075,468.61,3.02,-10.43,786.74,22.5,0.12,3.36
2025-04-29 17:37:37.633,469.17,5.48,3.96,784.12,22.49,0.21,3.37
2025-04-29 17:37:38.201,469.74,9.41,10.4,784.23,22.49,0.3,3.36
2025-04-29 17:37:38.718,470.26,12.64,2.07,786.39,22.49,0.36,3.37
2025-04-29 17:37:39.282,470.82,10.04,1.73,785.7,22.48,0.38,3.37
2025-04-29 17:37:39.838,471.38,9.46,4.32,784.83,22.49,0.39,3.32
2025-04-29 17:37:40.405,471.94,-5.19,5.77,789.41,22.49,0.41,3.37
2025-04-29 17:37:40.957,472.49,-0.69,2.01,791.61,22.49,0.47,3.36
2025-04-29 17:37:41.523,473.06,3.68,2.6,791.54,22.47,0.51,3.36
2025-04-29 17:37:42.068,473.61,6.43,2.01,792.99,22.46,0.54,3.37
2025-04-29 17:37:42.638,474.18,8.6,1.59,794.23,22.45,0.55,3.36
2025-04-29 17:37:43.158,474.70,14.79,-0.33,795.48,22.45,0.61,3.36
2025-04-29 17:37:43.684,475.22,16.27,0.48,795.64,22.45,0.61,3.35
2025-04-29 17:37:44.246,475.78,18.37,-1.72,795.31,22.46,0.63,3.32
2025-04-29 17:37:44.806,476.34,23.34,-1.8,802.27,22.44,0.7,3.36
2025-04-29 17:37:45.359,476.90,21.23,-4.23,801.76,22.45,0.71,3.34
2025-04-29 17:37:45.878,477.42,9.18,-1.32,802.42,22.44,0.71,3.36
2025-04-29 17:37:46.434,477.97,19.68,-4.08,803.76,22.42,0.75,3.36
2025-04-29 17:37:47.003,478.54,28.89,-5.12,807.52,22.41,0.77,3.36
2025-04-29 17:37:47.559,479.10,23.16,-5.33,809.36,22.41,0.77,3.36
2025-04-29 17:37:48.076,479.61,20.67,-6.63,806.41,22.41,0.77,3.36
2025-04-29 17:37:48.644,480.18,19.87,-4.71,804.49,22.41,0.77,3.36
2025-04-29 17:37:49.203,480.74,11.6,-0.58,805.24,22.41,0.79,3.31
2025-04-29 17:37:49.761,481.30,12.48,-3.2,807.17,22.41,0.77,3.37
2025-04-29 17:37:50.280,481.82,-0.3,-0.31,807.47,22.41,0.77,3.36
2025-04-29 17:37:50.856,482.39,3.95,-2.69,806.33,22.4,0.79,3.37
2025-04-29 17:37:51.361,482.90,8.24,0.82,805.09,22.4,0.79,3.36
2025-04-29 17:37:51.871,483.41,10.01,-1.12,805.39,22.41,0.78,3.36
2025-04-29 17:37:52.428,483.97,-2.28,-0.33,805.94,22.4,0.79,3.36
2025-04-29 17:37:52.987,484.52,-1.94,0.41,812.56,22.38,0.77,3.36
2025-04-29 17:37:53.557,485.09,-0.16,-0.99,812.16,22.37,0.82,3.36
2025-04-29 17:37:54.116,485.65,2.71,-0.54,813.96,22.36,0.84,3.36
2025-04-29 17:37:54.689,486.23,8.63,-0.78,814.13,22.36,0.83,3.36
2025-04-29 17:37:55.230,486.77,13.94,-2.01,814.07,22.37,0.83,3.35
2025-04-29 17:37:55.731,487.27,14.84,0.42,817.03,22.38,0.83,3.37
2025-04-29 17:37:56.274,487.81,11.58,-0.35,821.06,22.37,0.84,3.36
2025-04-29 17:37:56.840,488.38,-9.39,2.36,827.62,22.37,0.85,3.35
2025-04-29 17:37:57.377,488.91,5.09,-0.49,823.72,22.37,0.87,3.36
2025-04-29 17:37:57.885,489.42,8.39,0.16,821.01,22.38,0.85,3.36
2025-04-29 17:37:58.406,489.94,11.2,1.21,817.74,22.39,0.89,3.41
2025-04-29 17:37:58.909,490.45,11.35,3.1,819.41,22.4,0.87,3.36
2025-04-29 17:37:59.446,490.98,6.32,1.95,815.04,22.4,0.87,3.35
2025-04-29 17:38:00.033,491.57,6.22,4.8,816.24,22.41,0.91,3.36
2025-04-29 17:38:00.609,492.15,14.06,2.56,818.26,22.41,0.92,3.36
2025-04-29 17:38:01.119,492.66,17.09,0.86,820.42,22.42,0.94,3.36
2025-04-29 17:38:01.670,493.21,19.1,1.73,820.67,22.43,0.94,3.36
2025-04-29 17:38:02.236,493.77,19.28,0.55,820.58,22.43,0.94,3.42
2025-04-29 17:38:02.747,494.28,13.54,-0.59,824.33,22.44,0.93,3.33
2025-04-29 17:38:03.353,494.89,16.8,-0.17,823.54,22.43,0.88,3.36
2025-04-29 17:38:03.913,495.45,17.14,-0.46,824.92,22.44,0.88,3.36
2025-04-29 17:38:04.482,496.02,13.39,-1.66,826.88,22.45,0.9,3.35
2025-04-29 17:38:04.983,496.52,17.78,2.44,825.69,22.45,0.9,3.37
2025-04-29 17:38:05.512,497.05,4.93,3.38,824.77,22.45,0.89,3.35
2025-04-29 17:38:06.015,497.55,11.9,4.7,821.6,22.45,0.89,3.37
2025-04-29 17:38:06.586,498.12,21.27,6.56,818.85,22.46,0.86,3.35
2025-04-29 17:38:07.159,498.70,20.79,4.16,822.42,22.46,0.83,3.35
2025-04-29 17:38:07.718,499.26,16.75,5.42,821.02,22.46,0.82,3.36
2025-04-29 17:38:08.277,499.81,16.58,4.73,824.8,22.47,0.85,3.33
2025-04-29 17:38:08.843,500.38,27.1,3.51,824.47,22.47,0.86,3.35
2025-04-29 17:38:09.393,500.93,25.15,1.6,826.3,22.47,0.81,3.36
2025-04-29 17:38:09.922,501.46,14.23,-0.45,834.02,22.48,0.77,3.34
2025-04-29 17:38:10.429,501.97,18.61,-2.42,834.41,22.48,0.8,3.35
2025-04-29 17:38:11.028,502.57,21.81,-3.54,836.77,22.49,0.75,3.36
2025-04-29 17:38:11.585,503.12,6.38,-1.39,844.23,22.48,0.73,3.32
2025-04-29 17:38:12.164,503.70,7.79,-8.11,838.06,22.48,0.71,3.31
2025-04-29 17:38:12.697,504.23,14.44,3.71,839.31,22.48,0.67,3.36
2025-04-29 17:38:13.248,504.79,-13.89,3.93,841.66,22.47,0.67,3.36
2025-04-29 17:38:13.807,505.34,-22.81,4.84,849.26,22.47,0.7,3.37
2025-04-29 17:38:14.375,505.91,-12.32,3.77,847.54,22.45,0.75,3.35
2025-04-29 17:38:14.937,506.47,-2.53,2.74,846.96,22.43,0.78,3.36
